stop_id,stop_code,stop_name,stop_desc,stop_lat,stop_lon,zone_id,stop_url,location_type,parent_station,stop_timezone,wheelchair_boarding
1,1,Meridian Mall,MERIDIAN MALL LOT,42.724535,-84.420488,,,,,,0
4,4,WBD Frandor Center,FRANDOR ACCESS RD & FRANDOR CENTER,42.737159,-84.506217,,,,,,0
7,7,CATA Trans Center,S GRAND AVE & E LENAWEE ST,42.729345,-84.551054,,,,,,0
9,9,EBD Frandor Center,FRANDOR ACCESS RD & FRANDOR CENTER,42.737104,-84.506271,,,,,,0
15,15,EBD Burneway before Waverly,BURNEWAY DR,42.686563,-84.603807,,,,,,0
22,22,Lansing Mall,NEW MALL DR,42.743502,-84.625819,,,,,,0
23,23,EBD Saginaw past Waverly,W SAGINAW ST & W THOMAS L PKWY,42.740936,-84.601284,,,,,,0
33,33,WBD Davlind before Aurelius,DAVLIND DR & AURELIUS RD,42.627017,-84.522224,,,,,,0
36,36,NBD Cedar before Jolly,S CEDAR ST,42.681355,-84.547934,,,,,,0
41,41,WBD Holt past Aurelius,W HOLT RD & AURELIUS RD,42.64026,-84.52392,,,,,,0
42,42,WindMill Mobile Park,WINDMILL BLVD & REMBRANT RD,42.624049,-84.547137,,,,,,0
48,48,EBD BeauJardin past Dunckel,BEAU JARDIN DR,42.684479,-84.51287,,,,,,0
53,53,SBD Penn past Mt Hope,S PENNSYLVANIA AVE & MCKIM AVE,42.71157,-84.53821,,,,,,0
54,54,NBD Penn past Mt Hope,S PENNSYLVANIA AVE & E MOUNT HOPE AVE,42.71228,-84.53803,,,,,,0
67,67,EBD St Joseph before Waverly (store),VALUE CITY LOT,42.726212,-84.60488,,,,,,0
79,79,SBD Turner past North,TURNER ST & E NORTH ST,42.751304,-84.549627,,,,,,0
80,80,WBD North past Turner,E NORTH ST & TURNER ST,42.751697,-84.549983,,,,,,0
81,81,WBD Delta River past N Grand Riv.,DELTA RIVER DR & N GRAND RIVER AVE,42.763338,-84.580342,,,,,,0
82,82,Capital Regional Airport Auth. Term,W CIRCLE DR & E CIRCLE DR,42.774685,-84.589509,,,,,,0
87,87,WBD Shaw before Farm Lane,,42.726122,-84.47715,,,,,,0
96,96,EBD Haslett past Hagadorn,HASLETT RD & GREENCREST AVE,42.746849,-84.461769,,,,,,0
118,118,NBD Main before Grand River,MAIN ST S & CHESTNUT ST E,42.666473,-84.174003,,,,,,0
133,133,Mason Meijer,MASON MEIJER LOT & E CHERRY ST,42.565736,-84.44326,,,,,,0
159,159,CATA Offices,TRANTER ST & CATA HEADQUARTERS,42.688034,-84.534484,,,,,,0
160,160,Community Mental Health,MENTAL HEALTH LOT & S CEDAR ST,42.681801,-84.541191,,,,,,0
161,161,Family Ind. Agency,UNNAMED ST & S CEDAR ST,42.681346,-84.545672,,,,,,0
168,168,SBD Harrison before Michigan,117 N HARRISON RD & ELM ST,42.734189,-84.49361,,,,,,0
169,169,NBD Harrison past Michigan,N HARRISON RD & S HARRISON RD,42.73452,-84.493449,,,,,,0
175,175,MSU Union,W CIRCLE DR,42.73358,-84.48242,,,,,,0
177,177,Brody Complex,S HARRISON RD & BRODY RD S,42.731747,-84.494031,,,,,,0
178,178,Commuter Lot 89-4,COMMUTER LOT 89 & MSU MEDICAL CLINIC,42.712988,-84.479531,,,,,,0
191,191,University Village,UNIVERSITY VLG & UNIVERSITY VILLAGE ENTRANCE,42.727464,-84.498459,,,,,,0
195,195,EBD Mt Hope past Hagadorn,E MOUNT HOPE RD & JANICE LEE DR,42.711742,-84.458975,,,,,,0
978,978,EBD Saginaw past MLK,W SAGINAW ST & N MARTIN LUTHER KING JR BLVD,42.740901,-84.566539,,,,,,0
1144,1144,NBD Abbot past Saginaw,1400 ABBOT RD & E SAGINAW ST,42.747881,-84.483637,,,,,,0
1596,1596,NBD Grand past Hillsdale,S GRAND AVE & E HILLSDALE ST,42.727501,-84.550638,,,,,,0
1599,1599,NBD Grand Ave before E Allegan St,S GRAND AVE & E WASHTENAW ST,42.732092,-84.550598,,,,,,0
1600,1600,NBD Grand Ave past E Michigan Ave,N GRAND AVE & E MICHIGAN AVE,42.734257,-84.55056,,,,,,0
1601,1601,NBD Grand before Shiawassee St,N GRAND AVE & E IONIA ST,42.736906,-84.550546,,,,,,0
1603,1603,NBD Grand past Shiawassee St,N GRAND AVE & Shiawassee,42.737649,-84.550533,,,,,,0
1604,1604,NBD Grand past Saginaw St,N GRAND AVE,42.741344,-84.550518,,,,,,0
1609,1609,SBD Capitol past Saginaw St,N CAPITOL AVE & W LAPEER ST,42.740406,-84.553885,,,,,,0
1610,1610,SBD Capitol past Genessee St,N CAPITOL AVE & W SHIAWASSEE ST,42.738375,-84.553898,,,,,,0
1614,1614,SBD Capitol past Kalamazoo St,S CAPITOL AVE & W LENAWEE ST,42.729829,-84.55399,,,,,,0
1615,1615,SBD Capitol past Hillsdale,S CAPITOL AVE & W SAINT JOSEPH ST,42.727243,-84.554003,,,,,,0
1618,1618,NBD Walnut past Shiawassee St,N WALNUT ST & W GENESEE ST,42.73745,-84.55689,,,,,,0
1619,1619,SBD Pine past Genessee St,N PINE ST & Genesee,42.738403,-84.560041,,,,,,0
1622,1622,SBD Pine St past Ottawa,N PINE ST & W OTTAWA ST,42.734439,-84.560129,,,,,,0
1624,1624,EBD Shiawassee past Cedar St,E SHIAWASSEE ST & N CEDAR ST,42.737164,-84.545717,,,,,,0
1625,1625,WBD Shiawassee St at Washington Ave,,42.73747,-84.55213,,,,,,0
1626,1626,WBD Shiawassee before Seymour St,W SHIAWASSEE ST & N CAPITOL AVE,42.737355,-84.555078,,,,,,0
1627,1627,WBD Shiawassee past Walnut,W SHIAWASSEE ST & N WALNUT ST,42.737373,-84.557326,,,,,,0
1642,1642,WBD Kalamazoo past S Cedar St,E KALAMAZOO ST & S CEDAR ST,42.730041,-84.5463,,,,,,0
1644,1644,WBD Kalamazoo before Townsend St,W KALAMAZOO ST & S CAPITOL AVE,42.730089,-84.554739,,,,,,0
1653,1653,EBD Gr. River past Abbot Rd,GRAND RIVER AVE & ABBOT ROAD,42.734914,-84.4834,,,,,,0
1654,1654,EBD Gr. River Ave past Division St,GRAND RIVER AVE & BERKEY LOT ENTRANCE,42.733559,-84.47839,,,,,,0
1655,1655,EBD Gr. River Ave past Farm Lane,GRAND RIVER AVE & COLLINGWOOD DR,42.732571,-84.47467,,,,,,0
1656,1656,WBD Gr. River past Collingwood,621 E GRAND RIVER AVE & COLLINGWOOD DR,42.73308,-84.47556,,,,,,0
1657,1657,WBD Gr. River Ave before Division,E GRAND RIVER AVE & DIVISION ST,42.733701,-84.477862,,,,,,0
1658,1658,WBD Gr. River past MAC AVE,E GRAND RIVER AVE & ABBOT RD,42.735003,-84.482675,,,,,,0
1660,1660,SBD Farm past E Circle Dr,E CIRCLE DR & AUDITORIUM RD,42.730821,-84.476642,,,,,,0
1661,1661,SBD Farm Ln before Auditorium Rd,FARM LN & E CIRCLE DR,42.730086,-84.47788,,,,,,0
1669,1669,Meijer Lake Lansing Boarding Center (East Side),,42.762043,-84.502023,,,,,,0
1672,1672,EBD Michigan past Grand Ave,E MICHIGAN AVE & MUSEUM EXIT RAMP,42.733541,-84.549626,,,,,,0
1673,1673,EBD Michigan past Cedar St,E MICHIGAN AVE & N CEDAR ST,42.733567,-84.546187,,,,,,0
1674,1674,EBD Michigan past Larch St,E MICHIGAN AVE & N LARCH ST,42.733539,-84.544295,,,,,,0
1675,1675,EBD Michigan after S Hosmer St,E MICHIGAN AVE & S 8TH ST,42.733537,-84.539934,,,,,,0
1676,1676,EBD Michigan past Pennsylvania,E MICHIGAN AVE & past Pennsylvania,42.73352,-84.5374,,,,,,0
1677,1677,EBD Michigan past Jones St,E MICHIGAN AVE & past Jones,42.7335,-84.53411,,,,,,0
1678,1678,EBD Michigan past Holmes St,E MICHIGAN AVE & S HOLMES ST,42.73353,-84.53116,,,,,,0
1679,1679,EBD Michigan past Lathrop St,E MICHIGAN AVE & ALLEN ST,42.73352,-84.52792,,,,,,0
1680,1680,EBD Michigan past Sheperd St,E MICHIGAN AVE & LESLIE ST,42.73354,-84.52566,,,,,,0
1681,1681,EBD Michigan past Clemens Ave,E MICHIGAN AVE & N CLEMENS AVE,42.733582,-84.522024,,,,,,0
1682,1682,EBD Michigan before S Magnolia Av,E MICHIGAN AVE & S FAIRVIEW AVE,42.73358,-84.52023,,,,,,0
1683,1683,EBD Michigan past Foster Ave,E MICHIGAN AVE & N FOSTER AVE,42.73355,-84.51726,,,,,,0
1684,1684,EBD Michigan past Mifflin Ave,E MICHIGAN AVE & KIPLING BLVD,42.733578,-84.514862,,,,,,0
1688,1688,EBD Michigan Ave past Friendship Cl,MICHIGAN AVE & RENIGER CT,42.733309,-84.501485,,,,,,0
1689,1689,EBD Michigan past Highland Ave,MICHIGAN AVE & RENIGER CT,42.733308,-84.499692,,,,,,0
1690,1690,EBD Michigan past Brody Rd W,MICHIGAN AVE & MICHIGAN/HARRISON TURNAROUND,42.733305,-84.495724,,,,,,0
1691,1691,EBD Michigan past Harrison Rd,MICHIGAN AVE & S HARRISON RD,42.733464,-84.49323,,,,,,0
1693,1693,EBD Michigan Ave before Delta St,MICHIGAN AVE & MICHIGAN TURNAROUND,42.734686,-84.488449,,,,,,0
1694,1694,EBD Gr. River Ave past Bogue St,E GRAND RIVER AVE & BOGUE ST,42.731825,-84.471465,,,,,,0
1695,1695,EBD Gr. River Ave past River St,E GRAND RIVER AVE & RIVER ST,42.731215,-84.469096,,,,,,0
1696,1696,EBD Gr. River Ave before Spartan Av,E GRAND RIVER AVE & STODDARD AVE,42.730406,-84.466063,,,,,,0
1697,1697,EBD Gr. River Ave past S Hagadorn,1604 E GRAND RIVER AVE & N HAGADORN RD,42.729212,-84.461803,,,,,,0
1698,1698,EBD Gr. River Ave at Maplewood Dr,E GRAND RIVER AVE & OAKLAND DR,42.72845,-84.45887,,,,,,0
1699,1699,EBD Gr. River past Brookfield,E GRAND RIVER AVE & Brookfield,42.72784,-84.45661,,,,,,0
1700,1700,EBD Gr. River before Dawn,E GRAND RIVER AVE & DAWN AVE,42.726445,-84.451835,,,,,,0
1701,1701,EBD Gr. River Ave before Park Lake,E GRAND RIVER AVE,42.725493,-84.448483,,,,,,0
1702,1702,EBD Gr. River Ave before Small Acre,W GRAND RIVER AVE & CANADIAN NATIONAL RAILWAY,42.72431,-84.44096,,,,,,0
1703,1703,EBD Gr. River Ave past Nakoma Dr,W GRAND RIVER AVE & MONTROSE AVE,42.72337,-84.43544,,,,,,0
1704,1704,EBD Gr. River Ave after Grand View,W GRAND RIVER AVE & GRANDVIEW AVE,42.72272,-84.43155,,,,,,0
1705,1705,EBD Gr. River Ave past Okemos Rd,W GRAND RIVER AVE & OKEMOS MEIJER LOT,42.72196,-84.42705,,,,,,0
1706,1706,Okemos Meijer,OKEMOS MEIJER LOT & OKEMOS MEIJER LOT,42.71995,-84.42464,,,,,,0
1712,1712,WBD Gr. River Ave past Marsh Rd,2040 W GRAND RIVER AVE & MERIDIAN MALL LOT,42.720806,-84.420748,,,,,,0
1713,1713,WBD Gr. River past Okemos Rd,W GRAND RIVER AVE & OKEMOS RD,42.722238,-84.428004,,,,,,0
1714,1714,WBD Gr. River past Grand View,W GRAND RIVER AVE & Grand View,42.7231,-84.43291,,,,,,0
1715,1715,WBD Gr. River past Montrose Av,W GRAND RIVER AVE & MONTROSE AVE,42.72359,-84.43585,,,,,,0
1716,1716,WBD Gr. River past Mohawk Rd,W GRAND RIVER AVE & SMALL ACRES LN,42.72456,-84.44176,,,,,,0
1717,1717,WBD Gr. River past Park Lake R,E GRAND RIVER AVE & Park Lake Rd.,42.72586,-84.4493,,,,,,0
1718,1718,WBD Gr. River past Northwind D,E GRAND RIVER AVE & Northwind,42.72715,-84.45379,,,,,,0
1719,1719,WBD Gr.  River past E Brookfield,E GRAND RIVER AVE & E BROOKFIELD DR,42.728025,-84.456732,,,,,,0
1720,1720,WBD Gr. River past Maplewood D,E GRAND RIVER AVE & MAPLEWOOD DR,42.7288,-84.45965,,,,,,0
1721,1721,WBD Gr. River past N Hagadorn,E GRAND RIVER AVE & S HAGADORN RD,42.729867,-84.463706,,,,,,0
1722,1722,WBD Gr. River past Stoddard Av,E GRAND RIVER AVE & STODDARD AVE,42.730999,-84.467941,,,,,,0
1723,1723,WBD Gr. River past Gunson St,E GRAND RIVER AVE & CEDAR ST,42.73158,-84.47022,,,,,,0
1724,1724,WBD Gr. River past Kedzie St,E GRAND RIVER AVE & ORCHARD ST,42.732346,-84.472791,,,,,,0
1725,1725,WBD Michigan past Delta St,MICHIGAN AVE & LOUIS ST,42.735044,-84.488191,,,,,,0
1726,1726,WBD  Michigan Ave past  Louis St,MICHIGAN AVE & BEAL ST,42.734357,-84.490772,,,,,,0
1727,1727,WBD Michigan past Center St,MICHIGAN AVE & S HARRISON RD,42.733902,-84.492615,,,,,,0
1728,1728,WBD Michigan before Kensington,MICHIGAN AVE & BRODY RD W,42.733664,-84.497038,,,,,,0
1730,1730,WBD Michigan past Friendship Cir,MICHIGAN AVE & MORGAN LN,42.73373,-84.50243,,,,,,0
1732,1732,SBD Clippert St before Michigan Ave,N CLIPPERT ST & E MICHIGAN AVE,42.7346,-84.5084,,,,,,0
1734,1734,WBD Michigan past Howard Ave,E MICHIGAN AVE & DETROIT ST,42.73369,-84.51152,,,,,,0
1735,1735,WBD Michigan before Kipling Blvd,E MICHIGAN AVE & KIPLING BOUL;EVARD,42.73368,-84.51484,,,,,,0
1736,1736,WBD Michigan past Foster Ave,E MICHIGAN AVE & S FOSTER AVE,42.73371,-84.51795,,,,,,0
1737,1737,WBD Michigan past Magnolia Av,E MICHIGAN AVE & MAGNOLIA STREET,42.733679,-84.520304,,,,,,0
1738,1738,WBD Michigan past Clemens Ave,E MICHIGAN AVE & CLEMENS STREET,42.733699,-84.522724,,,,,,0
1739,1739,WBD Michigan past Marshall Ave,E MICHIGAN AVE & ALLEN ST,42.73367,-84.52646,,,,,,0
1740,1740,WBD Michigan past Custer Ave,E MICHIGAN AVE & Custer,42.733658,-84.529554,,,,,,0
1741,1741,WBD Michigan past Holmes St,E MICHIGAN AVE & past Holmes,42.73365,-84.53522,,,,,,0
1742,1742,WBD Michigan before Pennsylvani,E MICHIGAN AVE & BINGHAM ST,42.733652,-84.53733,,,,,,0
1743,1743,WBD Michigan past Hosmer St,E MICHIGAN AVE & N HOSMER ST,42.73363,-84.54162,,,,,,0
1744,1744,WBD Michigan past Larch St,E MICHIGAN AVE & LARCH STREET,42.73367,-84.54506,,,,,,0
1745,1745,WBD Michigan at Museum Drive,E MICHIGAN AVE & MUSEUM ACCESS RAMP,42.733693,-84.548496,,,,,,0
1746,1746,SBD Washington past Hazel St,S WASHINGTON AVE & W ELM ST,42.723099,-84.552434,,,,,,0
1748,1748,SBD Washington past South St,S WASHINGTON AVE & E SOUTH ST,42.719905,-84.552424,,,,,,0
1749,1749,SBD Washington before Baker St,S WASHINGTON AVE & ISLAND AVE,42.717444,-84.552437,,,,,,0
1750,1750,SBD Washington past Barnes Ave,S WASHINGTON AVE,42.714787,-84.552427,,,,,,0
1751,1751,SBD Washington past Mt Hope Av,S WASHINGTON AVE & Mt Hope,42.711333,-84.553117,,,,,,0
1752,1752,SBD Washington past Strathmore R,S WASHINGTON AVE & STRATHMORE RD,42.709016,-84.554997,,,,,,0
1753,1753,SBD Washington past Wayburn Rd,S WASHINGTON AVE & WAYBURN RD,42.706941,-84.556754,,,,,,0
1754,1754,SBD Washington past Greenlawn Av,S WASHINGTON AVE & WILLARD ST,42.705008,-84.558315,,,,,,0
1755,1755,SBD Washington before Dunlap St,S WASHINGTON AVE & DUNLAP ST,42.702888,-84.560096,,,,,,0
1756,1756,SBD Washington past Hodge Ave,S WASHINGTON AVE & W HODGE AVE,42.70024,-84.562271,,,,,,0
1757,1757,SBD Washington past Berry Ave,S WASHINGTON AVE & W HOLMES RD,42.698236,-84.563905,,,,,,0
1758,1758,WBD Holmes past Washington Ave,W HOLMES RD & S WASHINGTON AVE,42.697593,-84.565096,,,,,,0
1760,1760,WBD Holmes past MLK,W HOLMES RD & S MARTIN LUTHER KING JR BLVD,42.697593,-84.567859,,,,,,0
1761,1761,WBD Holmes Rd before Simken Dr,W HOLMES RD & EXPRESS CT,42.697622,-84.579302,,,,,,0
1763,1763,SBD Pleasant Grove past Holmes Rd,PLEASANT GROVE RD & W HOLMES RD,42.696942,-84.58231,,,,,,0
1764,1764,SBD Pleasant Grove before Wadsworth,PLEASANT GROVE RD & HILLCREST ST,42.693327,-84.582372,,,,,,0
1765,1765,SBD Pleasant Grove before Mary,PLEASANT GROVE RD & MARY AVE,42.691529,-84.582397,,,,,,0
1766,1766,SBD Pleasant Grove past Risdale St,PLEASANT GROVE RD & RISDALE AVE,42.689256,-84.582409,,,,,,0
1768,1768,WBD Reo before Sidney St,REO RD & RICHMOND ST,42.686751,-84.583674,,,,,,0
1769,1769,WBD Reo past Ingham St,REO RD & INGHAM ST,42.686787,-84.58937,,,,,,0
1770,1770,WBD Reo Rd at Wainwright Ave,REO RD & WAINWRIGHT AVE,42.686787,-84.592771,,,,,,0
1772,1772,NBD Stillwell past Jerree St,STILLWELL AVE & REO RD,42.688622,-84.59638,,,,,,0
1773,1773,WBD Sumpter before Anson,SUMPTER ST & ANSON ST,42.689302,-84.599056,,,,,,0
1774,1774,WBD Sumpter before Waverly,SUMPTER ST & S WAVERLY RD,42.689302,-84.601769,,,,,,0
1776,1776,WBD Sheffield Blvd past Waverly Rd,SHEFFIELD BLVD & S WAVERLY RD,42.694133,-84.603513,,,,,,0
1777,1777,WBD Sheffield past Bayview Dr,SHEFFIELD BLVD & BAYVIEW DR,42.693641,-84.606717,,,,,,0
1778,1778,WBD Sheffield before Blue River,SHEFFIELD BLVD & BLUE RIVER DR,42.693426,-84.608399,,,,,,0
1779,1779,WBD Sheffield past Blue River Dr,SHEFFIELD BLVD & SEAWAY DR,42.693417,-84.611223,,,,,,0
1780,1780,SBD Seaway past Sheffield Blvd,SEAWAY DR & SEAWAY DR,42.691573,-84.611542,,,,,,0
1781,1781,SBD Seaway past Glenburne Blvd,SEAWAY DR & GLENBURNE BLVD,42.689158,-84.610314,,,,,,0
1785,1785,EBD Sumpter past Waverly Rd,SUMPTER ST & Waverly,42.689194,-84.602346,,,,,,0
1786,1786,EBD Sumpter past Anson St,SUMPTER ST & ANSON ST,42.689194,-84.599559,,,,,,0
1787,1787,EBD Sumpter before Stillwell Ave,SUMPTER ST & STILLWELL AVE,42.689257,-84.596834,,,,,,0
1788,1788,EBD Ronald  before Atlanta Pl,RONALD ST & STILLWELL AVE,42.687557,-84.595533,,,,,,0
1789,1789,EBD Reo past Wainwright Ave,REO RD & BALLARD RD,42.686689,-84.592341,,,,,,0
1790,1790,EBD Reo past Ingham St,REO RD & INGHAM ST,42.686671,-84.588351,,,,,,0
1792,1792,NBD Pleasant Grove past Reo Rd,PLEASANT GROVE RD & REO RD,42.686992,-84.582287,,,,,,0
1793,1793,NBD Pleasant Grove at Risdale St,PLEASANT GROVE RD & RISDALE AVE,42.689489,-84.582262,,,,,,0
1794,1794,NBD Pleasant Grove before Mary Ave,PLEASANT GROVE RD & MARY AVE,42.691019,-84.582237,,,,,,0
1795,1795,NBD Pleasant Grove past Hillcrest S,PLEASANT GROVE RD & HILLCREST ST,42.693265,-84.582225,,,,,,0
1796,1796,NBD Pleasant Grove before Holmes,PLEASANT GROVE RD & W HOLMES RD,42.696835,-84.582162,,,,,,0
1797,1797,EBD Holmes past Pleasant Grove,W HOLMES RD & PLEASANT GROVE RD,42.697524,-84.580652,,,,,,0
1798,1798,EBD Holmes past Simkin,W HOLMES RD & EXPRESS CT,42.697514,-84.578319,,,,,,0
1801,1801,EBD Holmes past MLK,W HOLMES RD & S MARTIN LUTHER KING JR BLVD,42.697494,-84.566226,,,,,,0
1802,1802,NBD Washington before Berry Ave,S WASHINGTON AVE & W HOLMES RD,42.698675,-84.563414,,,,,,0
1803,1803,NBD Washington before Loa St,S WASHINGTON AVE & W HODGE AVE,42.70101,-84.561472,,,,,,0
1804,1804,NBD Washington past Dunlap St,S WASHINGTON AVE & DUNLAP ST,42.702772,-84.560035,,,,,,0
1805,1805,NBD Washington before Greenlawn,S WASHINGTON AVE & W GREENLAWN AVE,42.704686,-84.558425,,,,,,0
1806,1806,NBD Washington past Kensington R,S WASHINGTON AVE & KENSINGTON RD,42.706592,-84.556889,,,,,,0
1807,1807,NBD Washington past Rockford R,S WASHINGTON AVE & W ROCKFORD RD,42.707987,-84.55571,,,,,,0
1809,1809,NBD Washington before Mt Hope A,S WASHINGTON AVE & Mt Hope,42.711333,-84.552945,,,,,,0
1810,1810,NBD Washington at Bank St,S WASHINGTON AVE & Bank Street,42.712917,-84.552354,,,,,,0
1811,1811,NBD Washington past Barnes Ave,S WASHINGTON AVE & W BARNES AVE,42.71527,-84.552316,,,,,,0
1812,1812,NBD Washington past Baker St,S WASHINGTON AVE & WOODLAWN AVE,42.716827,-84.552303,,,,,,0
1813,1813,NBD Washington Ave before South St,S WASHINGTON AVE & E SOUTH ST,42.71986,-84.552276,,,,,,0
1814,1814,NBD Washington past Elm St,S WASHINGTON AVE & E ELM ST,42.722097,-84.552287,,,,,,0
1815,1815,NBD Washington past Hazel St,S WASHINGTON AVE & E HAZEL ST,42.723404,-84.552274,,,,,,0
1816,1816,NBD Walnut past Saginaw St,N WALNUT ST & W MADISON ST,42.74106,-84.55686,,,,,,0
1817,1817,NBD Walnut past Oakland Ave,N WALNUT ST & W KILBORN ST,42.743879,-84.556782,,,,,,0
1818,1818,NBD Walnut past Maple St,N WALNUT ST & W GRAND RIVER AVE,42.74642,-84.556744,,,,,,0
1820,1820,WBD Willow past Chestnut St,W WILLOW ST & N PINE ST,42.74879,-84.5587,,,,,,0
1821,1821,WBD Willow before Christopher St,W WILLOW ST & CHRISTOPHER ST,42.74882,-84.56156,,,,,,0
1822,1822,WBD Willow past Lansing Ave,W WILLOW ST & PRINCETON AVE,42.748355,-84.566425,,,,,,0
1824,1824,WBD Willow past Glenrose Ave,W WILLOW ST & WESTMORELAND AVE,42.748365,-84.571192,,,,,,0
1825,1825,WBD Willow past Comfort Ave,W WILLOW ST & CAWOOD ST,42.74836,-84.574991,,,,,,0
1826,1826,WBD Willow past Cleo St,W WILLOW ST & CLEO ST,42.748393,-84.576918,,,,,,0
1827,1827,WBD Willow past Sunset Ave,W WILLOW ST & SUNSET AVE,42.748403,-84.579682,,,,,,0
1828,1828,WBD Willow before Eastfield Rd,W WILLOW ST & before Eastfield,42.748365,-84.583858,,,,,,0
1829,1829,WBD Willow past Eastfield Rd,W WILLOW ST & past Eastfield,42.748355,-84.586992,,,,,,0
1830,1830,WBD Willow before Boynton Dr,W WILLOW ST & Boynton,42.748421,-84.591945,,,,,,0
1831,1831,WBD Willow past Briarwood Dr,W WILLOW ST & GOULD RD,42.74839,-84.59407,,,,,,0
1832,1832,SBD Morris past Willow St,MORRIS AVE & OVERLEA DR,42.74797,-84.59625,,,,,,0
1833,1833,SBD Morris past Cornelia Dr,MORRIS AVE & CORNELIA DR,42.74646,-84.59628,,,,,,0
1834,1834,SBD Morris before Sylvan Ave,MORRIS AVE & MACON AVE,42.744914,-84.596343,,,,,,0
1835,1835,SBD Morris before Upton Rd,MORRIS AVE & HAGAN ST,42.74235,-84.59631,,,,,,0
1836,1836,WBD Saginaw past Morris Ave,W SAGINAW ST & FITTING AVE,42.7411,-84.59716,,,,,,0
1837,1837,WBD Saginaw past Edgemont Blvd,W SAGINAW ST & EDGEMONT BLVD,42.74118,-84.60036,,,,,,0
1838,1838,WBD Saginaw past Waverly Rd,E SAGINAW HWY & N WAVERLY RD,42.74117,-84.60408,,,,,,0
1839,1839,WBD Saginaw past Thomas L Pkwy,E SAGINAW HWY & THOMAS L PKWY,42.741155,-84.606921,,,,,,0
1840,1840,WBD Saginaw past Clark Rd,E SAGINAW HWY & CLARK RD,42.741173,-84.609636,,,,,,0
1842,1842,WBD Saginaw past Maycroft Rd,E SAGINAW HWY & THEO AVE,42.741136,-84.61713,,,,,,0
1844,1844,NBD Elmwood past Saginaw St,ELMWOOD RD & IRIS AVE,42.741502,-84.622364,,,,,,0
1845,1845,WBD Mall Dr W after Elmwood Rd,W MALL DR & E MALL DR,42.745439,-84.623004,,,,,,0
1846,1846,WBD Mall Dr Past Vil. Green Access,W MALL DR & LANSING MALL LOT,42.74546,-84.62936,,,,,,0
1847,1847,EBD Frontage past Mall Dr,S SERVICE DR & K MART LOT,42.74094,-84.630626,,,,,,0
1850,1850,Meijer W Saginaw by Gas Station,UNNAMED ST & BARBARA DR,42.740231,-84.624882,,,,,,0
1851,1851,EBD Saginaw past Elmwood Dr,E SAGINAW HWY & ELMWOOD DR,42.741055,-84.621246,,,,,,0
1852,1852,EBD Saginaw past Theo Ave,E SAGINAW HWY & RICHARD AVE,42.741028,-84.617781,,,,,,0
1853,1853,EBD Saginaw St past Julian Ave,E SAGINAW HWY & JULIAN AVE,42.741011,-84.615324,,,,,,0
1854,1854,EBD Saginaw past Harriet Ave,E SAGINAW HWY & past Harriet,42.741029,-84.612327,,,,,,0
1855,1855,EBD Saginaw past Renker Rd,E SAGINAW HWY & CLARK RD,42.741056,-84.608653,,,,,,0
1857,1857,NBD Morris before Upton Rd,MORRIS AVE & UPTON RD,42.74213,-84.59622,,,,,,0
1858,1858,NBD Morris before Sylvan Ave,MORRIS AVE & SYLVAN RD,42.74472,-84.59621,,,,,,0
1859,1859,NBD Morris past Timber Dr,MORRIS AVE & CORNELIA DR,42.74626,-84.5962,,,,,,0
1860,1860,NBD Morris before Willow St,MORRIS AVE & OVERLEA DR,42.74812,-84.59619,,,,,,0
1861,1861,EBD Willow at Gould,W WILLOW ST & BRIARWOOD DR,42.748314,-84.594869,,,,,,0
1862,1862,EBD Willow past Westfield Rd,W WILLOW ST & Westfield,42.7483,-84.59102,,,,,,0
1863,1863,EBD Willow past Eastfield Rd,W WILLOW ST & EASTFIELD RD,42.748243,-84.586464,,,,,,0
1864,1864,EBD Willow before Sunset Ave,W WILLOW ST & Sunset St,42.748239,-84.583703,,,,,,0
1865,1865,EBD Willow past Sunset Ave,W WILLOW ST & Sunset,42.7483,-84.57911,,,,,,0
1867,1867,EBD Willow past Jenison Ave,W WILLOW ST & N JENISON AVE,42.74828,-84.57249,,,,,,0
1868,1868,EBD Willow past Linwood St,W WILLOW ST & N MARTIN LUTHER KING JR BLVD,42.74825,-84.5681,,,,,,0
1869,1869,EBD Willow past MLK Jr Blvd,W WILLOW ST & PRINCETON AVE,42.74823,-84.56586,,,,,,0
1871,1871,EBD Willow at Christopher St,W WILLOW ST & CHRISTOPHER ST,42.74872,-84.56194,,,,,,0
1872,1872,SBD Pine St past W Willow St,N PINE ST & W GRAND RIVER AVE,42.74825,-84.55993,,,,,,0
1874,1874,SBD Pine St past W Oakland Ave,N PINE ST & W OAKLAND AVE,42.743101,-84.559952,,,,,,0
1898,1898,EBD Malcolm X past S Grand Ave,E MAIN ST & S GRAND AVE,42.725452,-84.550013,,,,,,0
1899,1899,SBD Cedar past E Elm St,S CEDAR ST & E ELM ST,42.72121,-84.54555,,,,,,0
1901,1901,SBD Cedar past Isbell St,S CEDAR ST & past Isbell,42.71387,-84.54722,,,,,,0
1902,1902,SBD Cedar past E Mt Hope Ave,,42.710266,-84.548119,,,,,,0
1905,1905,SBD Cedar past E Greenlawn Ave,S CEDAR ST & E WILLARD AVE,42.70463,-84.54809,,,,,,0
1906,1906,SBD Cedar past Paris Ave,S CEDAR ST & PARIS AVE,42.70165,-84.548113,,,,,,0
1908,1908,SBD Cedar past E Holmes Rd,S CEDAR ST & E HOLMES RD,42.69696,-84.54811,,,,,,0
1909,1909,SBD Cedar past E Rouse St,S CEDAR ST & E ROUSE ST,42.69407,-84.54812,,,,,,0
1911,1911,SBD Cedar past E Cavanaugh Rd,S CEDAR ST & E CAVANAUGH RD,42.68983,-84.5481,,,,,,0
1912,1912,SBD Cedar past E Potter Ave,S CEDAR ST & past Potter,42.68742,-84.54811,,,,,,0
1913,1913,SBD Cedar past E Syringa Dd,S CEDAR ST & CEDAR CT,42.6843,-84.54816,,,,,,0
1915,1915,SBD Cedar past E Jolly Rd,S CEDAR ST & E JOLLY RD,42.682484,-84.548114,,,,,,0
1916,1916,SBD Cedar past  Armstrong Rd,S CEDAR ST & ARMSTRONG RD,42.67912,-84.54814,,,,,,0
1917,1917,SBD Cedar past E Northrup St,S CEDAR ST & E NORTHRUP ST,42.67623,-84.54767,,,,,,0
1918,1918,SBD Cedar past Kaynorth Rd,S CEDAR ST & past Kaynorth,42.67231,-84.54577,,,,,,0
1936,1936,SBD Eifert past Deer Run Ln,N EIFERT RD & DEER RUN LN,42.637629,-84.543091,,,,,,0
1937,1937,SBD Eifert past Wilcox,N EIFERT RD & WILCOX RD,42.63309,-84.54305,,,,,,0
1938,1938,EBD Windmill past Rotterdam,WINDMILL BLVD & N EIFERT RD,42.623985,-84.543249,,,,,,0
1940,1940,NBD Eifert at Valley Brook Rd,N EIFERT RD & WINDMILL BLVD,42.62794,-84.5429,,,,,,0
1946,1946,EBD Doncaster past Aurelius Rd,DONCASTER AVE & AURELIUS RD,42.62919,-84.52227,,,,,,0
1976,1976,NBD Cedar past Cedar Ct,S CEDAR ST & E SYRINGA DR,42.68634,-84.54794,,,,,,0
1990,1990,NBD Cedar past E Elm St,S CEDAR ST & E ELM ST,42.72202,-84.54532,,,,,,0
1995,1995,EBD Kalamazoo past Lathrop St,E KALAMAZOO ST & ALLEN ST,42.729961,-84.528145,,,,,,0
2002,2002,EBD Forest past Aurelius Rd,FOREST RD & AURELIUS RD,42.704564,-84.522755,,,,,,0
2003,2003,EBD Forest past Aurora Dr,,42.704623,-84.517659,,,,,,0
2014,2014,EBD Jolly past Aurelius Rd,,42.682955,-84.52225,,,,,,0
2038,2038,WBD Forest past Aurora Rd,FOREST RD & AURORA DR,42.704686,-84.518113,,,,,,0
2046,2046,WBD Kalamazoo past Allen St,E KALAMAZOO ST & LATHROP ST,42.730068,-84.527641,,,,,,0
2050,2050,WBD Kalamazoo before Hosmer,E KALAMAZOO ST & S 8TH ST,42.729976,-84.540723,,,,,,0
2181,2181,NBD Pennsylvania past Maplehill,S PENNSYLVANIA AVE & MAPLEHILL AVE,42.69264,-84.53796,,,,,,0
2182,2182,NBD Pennsylvania at Irvington Ave,S PENNSYLVANIA AVE & IRVINGTON AVE,42.69485,-84.53797,,,,,,0
2198,2198,EBD Shiawassee near Dorrance Pl,E SHIAWASSEE ST & N CEDAR ST,42.7371,-84.54104,,,,,,0
2213,2213,NBD N East past Howe,N EAST ST & E HOWE AVE,42.764088,-84.542699,,,,,,0
2223,2223,EBD Thomas past Turner St,W THOMAS ST & TURNER ST,42.7579,-84.552928,,,,,,0
2224,2224,EBD Thomas past Gary Ave,E THOMAS ST & GARY ST,42.757898,-84.549377,,,,,,0
2225,2225,EBD Thomas at Hall St,E THOMAS ST & THOMPSON ST,42.758013,-84.545678,,,,,,0
2230,2230,SBD High past Lake Lansing,N HIGH ST & LAKE LANSING RD,42.754,-84.53878,,,,,,0
2235,2235,SBD Pennsylvania past Porter St,N PENNSYLVANIA AVE & PORTER ST,42.745276,-84.537861,,,,,,0
2240,2240,EBD Shiawassee past MLK,W SHIAWASSEE ST & N BUTLER BLVD,42.737313,-84.566884,,,,,,0
2243,2243,SBD Jenison past Shiawassee St,N JENISON AVE & W IONIA ST,42.737019,-84.57283,,,,,,0
2249,2249,SBD Everett past W Hillsdale St,EVERETT DR & W KALAMAZOO ST,42.727302,-84.577083,,,,,,0
2292,2292,NBD Everett past W St Joseph St,EVERETT DR & W SAINT JOSEPH ST,42.727168,-84.576973,,,,,,0
2305,2305,SBD Cleo before Saginaw,N VERLINDEN AVE & W SAGINAW ST,42.74127,-84.577202,,,,,,0
2338,2338,EBD Saginaw past Bartlett St,W SAGINAW ST & BARTLETT ST,42.740891,-84.569654,,,,,,0
2340,2340,EBD Saginaw before Wisconsin Ave,W SAGINAW ST & WISCONSIN AVE,42.740883,-84.563332,,,,,,0
2348,2348,EBD Saginaw past N Foster Ave,E SAGINAW ST & N FOSTER AVE,42.740854,-84.517286,,,,,,0
2349,2349,EBD Saginaw past Kipling Blvd,E SAGINAW ST & KIPLING BLVD,42.740844,-84.51462,,,,,,0
2351,2351,NBD Chester past E Grand River Ave,CHESTER RD & E GRAND RIVER AVE,42.743087,-84.5113,,,,,,0
2352,2352,NBD Chester past Covington Ct,CHESTER RD & COVINGTON CT,42.744537,-84.511225,,,,,,0
2353,2353,NBD Chester past Woodruff Ave,CHESTER RD & HOPKINS AVE,42.746729,-84.511259,,,,,,0
2365,2365,WBD Lake Lansing past Coolidge Rd,W LAKE LANSING RD & WEST RD,42.76081,-84.504176,,,,,,0
2377,2377,SBD Chester past Hopkins Ave,CHESTER RD & Hopkins Street,42.747947,-84.511393,,,,,,0
2378,2378,SBD Chester past Woodruff Ave,CHESTER RD & WOODRUFF AVE,42.746372,-84.511395,,,,,,0
2384,2384,WBD Grand River past Fairview,E GRAND RIVER AVE & N FOSTER AVE,42.743317,-84.521596,,,,,,0
2385,2385,WBD Grand River past Wood St,E GRAND RIVER AVE & WOOD ST,42.743283,-84.524004,,,,,,0
2390,2390,SBD Capitol past W Oakland Ave,N CAPITOL AVE & W OAKLAND AVE,42.743162,-84.553822,,,,,,0
2395,2395,NBD Turner past Grand River Ave,TURNER ST & CLINTON ST,42.747876,-84.549506,,,,,,0
2408,2408,WBD Delta River past Benton Blvd,DELTA RIVER DR & WESTBURY RD,42.76256,-84.583403,,,,,,0
2409,2409,WBD Delta River  before Leon Ave,DELTA RIVER DR & Leon Street,42.761441,-84.587655,,,,,,0
2410,2410,WBD Delta Riverpast Northwest Ave,DELTA RIVER DR & Northwest,42.760618,-84.591465,,,,,,0
2411,2411,WBD Delta River at Newport Dr,DELTA RIVER DR & NEWPORT DR,42.76188,-84.595987,,,,,,0
2412,2412,WBD Delta River past Amherst Dr,DELTA RIVER DR & CRANBROOK AVE,42.762855,-84.598875,,,,,,0
2421,2421,NBD Capitol City past Commerce Dr,CAPITOL CITY BLVD & W CIRCLE DR,42.772403,-84.588833,,,,,,0
2442,2442,EBD Malcolm X past S Pennsylvania Ave,PENNSYLVANIA/MAIN CONNECTOR & E JOLLY RD,42.725455,-84.536452,,,,,,0
2446,2446,SBD Capitol before Kilborn St,N CAPITOL AVE & W MAPLE ST,42.745712,-84.553808,,,,,,0
2455,2455,EBD Kalamazoo past Charles St,,42.72993,-84.51316,,,,,,0
2460,2460,NBD Coolidge past Melody Ln,COOLIDGE RD & MELODY LN,42.743896,-84.503363,,,,,,0
2461,2461,NBD Coolidge past Lakeside Dr,COOLIDGE RD & Lakeside Dr.,42.747861,-84.503419,,,,,,0
2462,2462,NBD Coolidge past Fairoaks Ct,COOLIDGE RD & FAIROAKS CT,42.750984,-84.503415,,,,,,0
2463,2463,NBD Coolidge past Farwood Dr,COOLIDGE RD & FARWOOD DR,42.752925,-84.503412,,,,,,0
2464,2464,NBD Coolidge past N Shore Dr,COOLIDGE RD & N SHORE DR,42.75527,-84.503372,,,,,,0
2465,2465,NBD Coolidge before Ramblewood Dr,COOLIDGE RD & N SHORE DR,42.757212,-84.503357,,,,,,0
2466,2466,NBD Coolidge before W Lake Lansing,COOLIDGE RD & W LAKE LANSING RD,42.760254,-84.503353,,,,,,0
2468,2468,SBD Coolidge past Ramblewood Dr,COOLIDGE RD & RAMBLEWOOD DR,42.757391,-84.503504,,,,,,0
2469,2469,SBD Coolidge before N Shore Dr,COOLIDGE RD & RAMBLEWOOD DR,42.755682,-84.503519,,,,,,0
2470,2470,SBD Coolidge past N Shore Dr,COOLIDGE RD & WOODBROOK DR,42.753883,-84.503558,,,,,,0
2472,2472,SBD Coolidge past Pebble Creek Blvd,COOLIDGE RD & PEBBLE CREEK BLVD,42.74999,-84.503563,,,,,,0
2473,2473,SBD Coolidge past Stonewood Dr,COOLIDGE RD & LAKE SIDE DR,42.747306,-84.503542,,,,,,0
2474,2474,SBD Coolidge past Dual Chartwell Ca,COOLIDGE RD & CHARTWELL DUAL CARRIAGE WAY,42.745194,-84.503508,,,,,,0
2475,2475,SBD Coolidge past Melody Ln,COOLIDGE RD & MELODY LN,42.743458,-84.503511,,,,,,0
2490,2490,NBD Holmes before Malcolm X,S HOLMES ST & E MAIN ST,42.725185,-84.533001,,,,,,0
2493,2493,SBD MAC past Burcham,634 MAC AVE & BURCHAM DR,42.740236,-84.480738,,,,,,0
2495,2495,NBD Abbot before Centerlawn St,ABBOT RD & CENTERLAWN ST,42.74185,-84.483659,,,,,,0
2503,2503,EBD Lake Lansing past Abbot Rd,E LAKE LANSING RD & ABBOT RD,42.759155,-84.48298,,,,,,0
2504,2504,WBD Lake Lansing before Gossard Ave,3383 E LAKE LANSING RD & GOSSARD AVE,42.758735,-84.478314,,,,,,0
2509,2509,NBD Hagadorn past Lake Lansing,6020 N HAGADORN RD & E LAKE LANSING RD,42.755598,-84.462208,,,,,,0
2510,2510,NBD Hagadorn past Horizon Dr,N HAGADORN RD & HORIZON DR,42.756708,-84.462218,,,,,,0
2511,2511,NBD Hagadorn past Birch Row Dr,N HAGADORN RD & COBBLERS CT,42.7587,-84.463281,,,,,,0
2512,2512,NBD Hagadorn past Farrington Ct,N HAGADORN RD & FARRINGTON CT,42.760125,-84.464595,,,,,,0
2513,2513,WBD Birch Row before Cobbler's Dr,N HAGADORN RD & before Cobb,42.7609,-84.463437,,,,,,0
2514,2514,WBD Birch Row past Captain's Way,BIRCH ROW DR & FARRINGTON CT,42.760311,-84.461047,,,,,,0
2515,2515,WBD Birch Row past Briarwick Ct,BIRCH ROW DR & COACH HOUSE ST,42.759338,-84.461854,,,,,,0
2520,2520,WBD Birch Row before Hardy Ave,3104 BIRCH ROW DR & HARDY AVE,42.758364,-84.466785,,,,,,0
2521,2521,WBD Birch Row past Gibson Ave,BIRCH ROW DR & POLLARD AVE,42.758328,-84.469523,,,,,,0
2522,2522,WBD Birch Row past Porter Ave,3214 BIRCH ROW DR & RUTHERFORD AVE,42.758341,-84.473627,,,,,,0
2523,2523,WBD Lake Lansing past Towar Ave,E LAKE LANSING RD & BIRCH ROW DR,42.758457,-84.475935,,,,,,0
2524,2524,EBD Lk. Lansing Rd past Gossard Ave,3412 E LAKE LANSING RD & GOSSARD AVE,42.758623,-84.478434,,,,,,0
2525,2525,NBD Abbot past W Lake Lansing Rd,Abbot Rd & E Lake Lansing Rd,42.75962,-84.48362,,,,,,0
2535,2535,SBD MAC past Linden,329 MAC AVE & MARIOTT SERVICE DRIVE,42.736603,-84.480781,,,,,,0
2536,2536,EBD Albert past MAC,ALBERT AVE & MAC Avenue,42.735431,-84.480856,,,,,,0
2542,2542,NBD Harrison past Wildwood Dr,720 N HARRISON RD & SOUTHLAWN AVE,42.740596,-84.493539,,,,,,0
2543,2543,NBD Harrison past Northlawn St,940 N HARRISON RD & NORTHLAWN ST,42.743119,-84.493572,,,,,,0
2544,2544,NBD Harrison past Pine Forest Dr,N HARRISON RD & LONGFELLOW DR,42.746824,-84.493517,,,,,,0
2545,2545,NBD Harrison past Woodingham Dr,1412 N HARRISON RD & WOODINGHAM DR,42.74856,-84.493551,,,,,,0
2546,2546,NBD Harrison past Gainsborough Dr,1620 N HARRISON RD & DARLINGTON AVE,42.751468,-84.493498,,,,,,0
2547,2547,NBD Harrison past Blanchette Dr,1800 N HARRISON RD & BLANCHETTE DR,42.753491,-84.493458,,,,,,0
2548,2548,NBD Harrison Rd at Crown Blvd,1900 N HARRISON RD & CROWN BLVD,42.755343,-84.493505,,,,,,0
2549,2549,NBD Harrison past Tarleton Ave,2210 N HARRISON RD & TARLETON AVE,42.75843,-84.493475,,,,,,0
2550,2550,WBD Lake Lansing past N Harrison,808 W LAKE LANSING RD & BURNT TREE LN,42.760161,-84.494281,,,,,,0
2551,2551,WBD Lake Lansing at Barclay Ln,830 W LAKE LANSING RD & BARCLAY LN,42.760735,-84.496399,,,,,,0
2552,2552,WBD Lake Lansing past Marfitt Rd,W LAKE LANSING RD & MARFITT RD,42.7609,-84.499146,,,,,,0
2560,2560,SBD Harrison past Blanchette Dr,1739 N HARRISON RD & CRICKET LN,42.753178,-84.493606,,,,,,0
2561,2561,SBD Harrison past Gainsborough Dr,1545 N HARRISON RD & GAINSBOROUGH DR,42.75086,-84.493671,,,,,,0
2568,2568,SBD Harrison past Kalamazoo St,S HARRISON RD & MICHIGAN/HARRISON TURNAROUND,42.728615,-84.493986,,,,,,0
2570,2570,SBD Harrison Rd before Sever Dr,S HARRISON RD & LILAC AVE,42.72253,-84.493971,,,,,,0
2572,2572,SBD Harrison before Service Rd,HARRISON RD & S HARRISON RD,42.718843,-84.493964,,,,,,0
2574,2574,WBD S Crescent before S Middlevale,SOUTH CRESCENT RD & S HARRISON RD,42.71371,-84.497533,,,,,,0
2576,2576,Middlevale near Laundromat,MIDDLEVALE RD & S HARRISON RD,42.717605,-84.501507,,,,,,0
2580,2580,EBD N Crescent before Harrison,CRESCENT RD & S HARRISON RD,42.716276,-84.495564,,,,,,0
2581,2581,NBD Harrison past Crescent Rd,S HARRISON RD & CRESCENT RD,42.71657,-84.493599,,,,,,0
2583,2583,NBD Harrison past Wilson Rd,S HARRISON RD & LILAC AVE,42.722592,-84.49359,,,,,,0
2586,2586,EBD S Shaw at Chemistry,S SHAW LN & RAMP 1,42.725171,-84.475076,,,,,,0
2592,2592,NBD Hagadorn at Glenwood Apt.,4630 S HAGADORN RD & TWYCKINGHAM DR,42.71545,-84.461977,,,,,,0
2598,2598,NBD Hagadorn past Cahill Dr,N HAGADORN RD & CAHILL DR,42.734134,-84.462088,,,,,,0
2599,2599,NBD Hagadorn past Linden St,N HAGADORN RD & LINDEN ST,42.736541,-84.462108,,,,,,0
2600,2600,NBD Hagadorn past Snyder Rd,N HAGADORN RD & MOUNT VERNON AVE,42.738876,-84.46214,,,,,,0
2601,2601,NBD Hagadorn past Burcham Dr,N HAGADORN RD & BURCHAM DR,42.741186,-84.46218,,,,,,0
2603,2603,SBD Hagadorn past Haslett,N HAGADORN RD & CEDARHILL DR,42.746223,-84.462372,,,,,,0
2605,2605,EBD Haslett past Deerpath Ln,1800 HASLETT RD & DEER PATH LN,42.746904,-84.454384,,,,,,0
2614,2614,SBD Hagadorn past Snyder Rd,587 N HAGADORN RD & SNYDER RD,42.73842,-84.462301,,,,,,0
2615,2615,SBD Hagadorn past Beech St,N HAGADORN RD & LINDEN ST,42.736505,-84.462256,,,,,,0
2616,2616,SBD Hagadorn past Albert Ave,N HAGADORN RD & CAHILL DR,42.734152,-84.462236,,,,,,0
2630,2630,SBD Marsh past W Lake Dr,MARSH RD & LAKE DR,42.749369,-84.408536,,,,,,0
2640,2640,WBD Lake Lansing past Martinus St,LAKE LANSING RD & MARTINUS ST,42.753989,-84.410035,,,,,,0
2641,2641,WBD Lake Lansing past Cypress St,LAKE LANSING RD & GREENMAN ST,42.753982,-84.41167,,,,,,0
2642,2642,WBD Lake Lansing past Buena Pkwy,LAKE LANSING RD & BUENA PKWY,42.75398,-84.416155,,,,,,0
2644,2644,NBD LacDuMont near #2091,LAC DU MONT DR,42.752807,-84.424504,,,,,,0
2645,2645,NBD LacDuMont before Lake Lansing,2101 LAC DU MONT DR & 2101 Lac DuMont,42.75501,-84.423807,,,,,,0
2646,2646,SBD LacDuMont past Lake Lansing,LAC DU MONT DR & LAKE LANSING RD,42.755109,-84.423955,,,,,,0
2647,2647,NBD LacDuMont past Bois Isle,1941 LAC DU MONT DR & HASLETT RD,42.749332,-84.420541,,,,,,0
2652,2652,EBD Lake Lansing before Bois Isle,LAKE LANSING RD & LAC DU MONT DR,42.755402,-84.422283,,,,,,0
2655,2655,SBD Marsh past E Lake Lansing Ct.,MARSH RD & LAKE DR,42.752788,-84.408662,,,,,,0
2665,2665,SBD Marsh before Haslett Rd,MARSH RD & HASLETT RD,42.747902,-84.408491,,,,,,0
2666,2666,SBD Marsh past Nemoke Trl,MARSH RD & NEMOKE TRL,42.741933,-84.408151,,,,,,0
2667,2667,SBD Marsh past Rolling Hills Dr,MARSH RD & Rolling Hills Dr,42.73821,-84.40821,,,,,,0
2668,2668,SBD Marsh past Huntsville Dr,MARSH RD & MONTGOMERY CT,42.736055,-84.409359,,,,,,0
2669,2669,SBD Marsh Rd at Tihart Dr,MARSH RD & 5TH AVE,42.733078,-84.410829,,,,,,0
2675,2675,NBD Dobie past Birchwood Dr,DOBIE RD & BIRCHWOOD DR,42.707485,-84.410283,,,,,,0
2676,2676,SBD Dobie past Hatch Rd,DOBIE RD & HATCH RD,42.704381,-84.410414,,,,,,0
2678,2678,SBD Dobie past Sashabaw Rd,DOBIE RD & SASHABAW DR,42.690941,-84.41045,,,,,,0
2682,2682,NBD Dobie past Algoma Dr,DOBIE RD & ALGOMA DR,42.687675,-84.410299,,,,,,0
2684,2684,WBD Jolly past Fairhills Dr,JOLLY RD & SUMMERGATE LN,42.683063,-84.420653,,,,,,0
2691,2691,NBD Okemos past Jolly Oak Rd,3590 OKEMOS RD & ASSOCIATION DR,42.68528,-84.432365,,,,,,0
2692,2692,NBD Okemos past Tamarack Dr,OKEMOS RD & TAMARACK DR,42.691275,-84.432339,,,,,,0
2695,2695,NBD Okemos past Kinawa Dr,OKEMOS RD & Kinawa Dr,42.697422,-84.432324,,,,,,0
2696,2696,NBD Okemos before Sower Blvd,OKEMOS RD & before Sower,42.701582,-84.43229,,,,,,0
2698,2698,NBD Okemos past Science Pkwy,4321 OKEMOS RD & RIVERWOOD DR,42.707202,-84.432277,,,,,,0
2727,2727,EBD Grand River Ave at Webberville,GRAND RIVER AVE W,42.667161,-84.187707,,,,,,0
2730,2730,EBD Grand River past Skirting Av,E GRAND RIVER AVE & N MULLET ST,42.685508,-84.265047,,,,,,0
2735,2735,WBD Grand River Ave before Jackson,W GRAND RIVER AVE & Jackson,42.688771,-84.285533,,,,,,0
2736,2736,WBD Grand River past McCormick,W GRAND RIVER AVE & McCormick,42.687839,-84.292767,,,,,,0
2738,2738,WBD Grand River past Corwin Rd,W GRAND RIVER AVE & Corwin,42.68806,-84.30314,,,,,,0
2740,2740,WBD Grand River Ave at Spruce Rd,W GRAND RIVER AVE & VAN ATTA RD,42.712168,-84.37758,,,,,,0
2797,2797,NBD N East past Banghart,N EAST ST & BANGHART ST,42.760625,-84.542739,,,,,,0
2801,2801,NBD High past E Grand River Ave,N HIGH ST & DRURY LN,42.747881,-84.53862,,,,,,0
2837,2837,NBD Harrison past Grand River,N HARRISON RD & HUNTINGTON RD,42.738529,-84.493542,,,,,,0
2842,2842,WBD Kalamazoo past Harrison,E KALAMAZOO ST & FARM LN,42.729206,-84.494551,,,,,,0
2843,2843,EBD Kalamazoo past Dem Hall Dr,E KALAMAZOO ST & UNIVERSITY VILLAGE ENTRANCE,42.730105,-84.489108,,,,,,0
2844,2844,EBD Shaw past Bogue,E SHAW LN & RAMP 1,42.725668,-84.470703,,,,,,0
2848,2848,WBD Haslett past Deerpath Ln,HASLETT RD & WOODSIDE DR,42.747003,-84.454777,,,,,,0
2849,2849,WBD Haslett past Ferndale Ave,1655 HASLETT RD & PARKVALE AVE,42.747006,-84.45823,,,,,,0
2859,2859,NBD Harrison Rd at Forest Acres,S HARRISON RD & TECHNOLOGY BLVD,42.709161,-84.493806,,,,,,0
2864,2864,WBD Mt Hope before Comanche Dr,E MOUNT HOPE RD & COPPERHILL DR,42.71188,-84.446019,,,,,,0
2866,2866,SBD Okemos past Kewanee Way,4397 OKEMOS RD & KEWANEE WAY,42.709,-84.432432,,,,,,0
2867,2867,SBD Okemos past Science Pkwy,OKEMOS RD & PAST SCIENCE BOULEVARD,42.70662,-84.432438,,,,,,0
2875,2875,EBD Shaw before Wilson,E SHAW LN & WILSON RD,42.72537,-84.46789,,,,,,0
2878,2878,NBD Red Cedar past W Shaw Ln,RED CEDAR RD & SCIENCE RD,42.728695,-84.482845,,,,,,0
2879,2879,WBD Red Cedar before Chestnut Rd,RED CEDAR RD & SCIENCE RD,42.730765,-84.486355,,,,,,0
2880,2880,SBD Okemos past Sower Blvd,OKEMOS RD & past Sower,42.701135,-84.432438,,,,,,0
2881,2881,SBD Okemos past  Bennett Rd,3965 OKEMOS RD & HERITAGE AVE,42.696384,-84.432462,,,,,,0
2882,2882,SBD Okemos past Knob Hill Dr,OKEMOS RD & KNOB HILL DR,42.690496,-84.4325,,,,,,0
2883,2883,SBD Okemos before Jolly Oaks Rd,OKEMOS RD & JOLLY OAK RD,42.685772,-84.432511,,,,,,0
2887,2887,WBD Mt Hope past Seminole Pl,E MOUNT HOPE RD & INDIAN HILLS DR,42.711927,-84.433113,,,,,,0
2890,2890,SBD Farm past Wilson,FARM LN,42.722561,-84.478053,,,,,,0
2898,2898,SBD Chestnut Rd before Dem. Hall,CHESTNUT RD & SCIENCE RD,42.729979,-84.487707,,,,,,0
2912,2912,EBD Haslett past Westminster Way,2319 HASLETT RD & past Westminster,42.746916,-84.434431,,,,,,0
2913,2913,EBD Haslett past N Okemos Rd,2111 HASLETT RD & past OKEMOS RD,42.747004,-84.426322,,,,,,0
2915,2915,NBD Chestnut past Dem Hall Dr.,CHESTNUT RD & ELM ST,42.729782,-84.487708,,,,,,0
2916,2916,EBD Red Cedar past Chestnut,RED CEDAR RD & FARM LN,42.730209,-84.485471,,,,,,0
2917,2917,SBD Red Cedar at Wells Hall,RED CEDAR RD & ELM ST,42.728623,-84.482919,,,,,,0
2918,2918,EBD S Shaw before Farm,S SHAW LN & FARM LN,42.725175,-84.479498,,,,,,0
2931,2931,WBD Haslett past N Okemos Rd,HASLETT RD & WESTMINSTER WAY,42.747097,-84.428361,,,,,,0
2949,2949,SBD Coolidge Rd past W Lake Lansing,COOLIDGE RD & W LAKE LANSING RD,42.760004,-84.503501,,,,,,0
2995,2995,WBD Trappers Cove before Dunckel,TRAPPERS COVE TRL & BEAU JARDIN DR,42.687483,-84.508705,,,,,,0
3005,3005,NBD Washington past St Joseph,S WASHINGTON AVE & E HILLSDALE ST,42.726643,-84.552247,,,,,,0
3012,3012,SBD Capitol past W Ionia St,N CAPITOL AVE & W OTTAWA ST,42.735583,-84.553937,,,,,,0
3013,3013,SBD Capitol before W Allegan St,S CAPITOL AVE & E MICHIGAN AVE,42.732871,-84.553988,,,,,,0
3014,3014,SBD Capitol past W Washtenaw St,S CAPITOL AVE & W WASHTENAW ST,42.73101,-84.553977,,,,,,0
3024,3024,WBD Shiawassee past Cedar,E SHIAWASSEE ST & N CEDAR ST,42.737307,-84.54697,,,,,,0
3028,3028,WBD Shiawassee past N Pine St,W SHIAWASSEE ST & N SYCAMORE ST,42.737392,-84.560631,,,,,,0
3029,3029,WBD Shiawassee past N Butler Blvd,W SHIAWASSEE ST & N MARTIN LUTHER KING JR BLVD,42.737429,-84.56498,,,,,,0
3033,3033,WBD Ottawa past N Capitol Ave,W OTTAWA ST & SEYMOUR AVE,42.734724,-84.554257,,,,,,0
3034,3034,WBD Ottawa St before Chestnut St,W OTTAWA ST & N CHESTNUT ST,42.734743,-84.558139,,,,,,0
3036,3036,EBD Allegan past Butler,W ALLEGAN ST & S BUTLER BLVD,42.732651,-84.564245,,,,,,0
3037,3037,EBD Allegan St before S Sycamore St,W ALLEGAN ST & S BUTLER BLVD,42.732632,-84.561665,,,,,,0
3038,3038,EBD  Allegan past S Pine St,W ALLEGAN ST & S PINE ST,42.732622,-84.558545,,,,,,0
3039,3039,EBD Allegan before Townsend St,W ALLEGAN ST & TOWNSEND ST,42.732612,-84.555781,,,,,,0
3040,3040,EBD Allegan past Capitol Ave,W ALLEGAN ST & CAPITOL,42.732612,-84.55346,,,,,,0
3045,3045,WBD Kalamazoo past S Walnut St,W KALAMAZOO ST & S WALNUT ST,42.730081,-84.557404,,,,,,0
3046,3046,WBD Kalamazoo past S Pine St,W KALAMAZOO ST & S PINE ST,42.730099,-84.560623,,,,,,0
3047,3047,WBD Kalamazoo before S Butler Blvd,W KALAMAZOO ST & MICHIGAN STATE LIBRARY/MUSEUM,42.730118,-84.564123,,,,,,0
3091,3091,WBD Gr. River past Mall Entrance,W GRAND RIVER AVE & W OTTAWA ST,42.721706,-84.424861,,,,,,0
3159,3159,EBD Reo Rd past Sidney St,REO RD & RICHMOND ST,42.686635,-84.584693,,,,,,0
3192,3192,EBD Willow before Cleo,W WILLOW ST & CLEO ST,42.74828,-84.57682,,,,,,0
3206,3206,WBD Saginaw past Robbins Rd,E SAGINAW HWY & WINSFRED AVE,42.7411,-84.61443,,,,,,0
3208,3208,WBD Saginaw before Mall Dr E,E SAGINAW HWY & IRIS AVE,42.741153,-84.620165,,,,,,0
3230,3230,SBD Pine past W Maple St,N PINE ST & W MAPLE ST,42.74593,-84.55996,,,,,,0
3240,3240,Peckham Riverside,N MARTIN LUTHER KING JR BLVD & MLK/LOGAN ACCESS CUTOFF,42.758879,-84.567367,,,,,,0
3258,3258,SBD Cedar past Baker St,S CEDAR ST & BAKER ST,42.71615,-84.54649,,,,,,0
3265,3265,SBD Cedar St before Crest St,S CEDAR ST & BROOKLAND BLVD,42.69965,-84.54811,,,,,,0
3268,3268,SBD Cedar past E Mason St,S CEDAR ST & MAPLEHILL AVE,42.69205,-84.54812,,,,,,0
3275,3275,EBD Miller past S Cedar St,E MILLER RD & MEIJER PENNSYLVANIA LOT,42.669165,-84.542129,,,,,,0
3276,3276,SBD Pennsylvania past Miller Rd,S PENNSYLVANIA AVE & RAMADA DR,42.668808,-84.538256,,,,,,0
3277,3277,SBD Pennsylvania before Pierpoint,S PENNSYLVANIA AVE & PENNSYLVANIA/E I 96 CONNECTOR RAMP,42.66297,-84.5383,,,,,,0
3279,3279,SBD Cedar past Long Blvd,S CEDAR ST & LONG BLVD,42.65865,-84.5368,,,,,,0
3280,3280,SBD Cedar past Willoughby Rd,CEDAR ST & S CEDAR ST,42.653857,-84.5319,,,,,,0
3282,3282,SBD Cedar past Fay Ave,CEDAR ST,42.649467,-84.526703,,,,,,0
3283,3283,SBD Aurelius before Spahr Ave,AURELIUS RD & CEDAR ST,42.64675,-84.52354,,,,,,0
3284,3284,SBD Aurelius Rd before Decamp Ave,AURELIUS RD & DECAMP AVE,42.64418,-84.52354,,,,,,0
3290,3290,SBD Eifert past W Holt Rd,N EIFERT RD & W HOLT RD,42.639742,-84.543115,,,,,,0
3299,3299,EBD Wilcox past Eifert Rd,WILCOX RD & TUPELO TRL,42.633003,-84.541439,,,,,,0
3300,3300,EBD Wilcox past Laurelwood Dr,WILCOX RD & DOGWOOD DR,42.632956,-84.537133,,,,,,0
3303,3303,EBD Wilcox past Heather Haven Dr,WILCOX RD & FOXWOOD DR,42.632973,-84.534484,,,,,,0
3305,3305,EBD Wilcox past Foxwood Dr,WILCOX RD & FOXWOOD DR,42.632944,-84.530816,,,,,,0
3306,3306,EBD Wilcox past Meadow Dr,WILCOX RD & MEADOW DR,42.632906,-84.526511,,,,,,0
3311,3311,WBD Sycamore past Park St,W SYCAMORE ST & S PARK ST,42.581242,-84.445052,,,,,,0
3313,3313,NBD Cedar past Columbia St,N CEDAR ST & CENTER ST,42.582932,-84.452771,,,,,,0
3315,3315,NBD Cedar past Curtis St,N CEDAR ST & CURTIS ST,42.588644,-84.456645,,,,,,0
3318,3318,NBD Aurelius before Weswilmar Dr,AURELIUS RD & WILCOX RD,42.634112,-84.523296,,,,,,0
3319,3319,NBD Aurelius past Sycamore St,AURELIUS RD & GROVE AVE,42.636689,-84.523317,,,,,,0
3321,3321,NBD Aurelius past Doncaster,AURELIUS RD & DONCASTER AVE,42.629621,-84.523202,,,,,,0
3325,3325,NBD Cedar past Veterans Dr,CEDAR ST & VETERANS DR,42.64129,-84.51625,,,,,,0
3327,3327,NBD Cedar St at North St,CEDAR ST & NORTH ST,42.644981,-84.520254,,,,,,0
3328,3328,NBD Cedar St before Keller Rd,CEDAR ST & E LENAWEE ST,42.646995,-84.522546,,,,,,0
3329,3329,NBD Cedar past Aurelius Rd,CEDAR ST & NORTH ST,42.6481,-84.52421,,,,,,0
3330,3330,NBD Cedar St at Fay Ave,CEDAR ST & FAY ST,42.65028,-84.52762,,,,,,0
3331,3331,NBD Cedar past Willoughby Rd,S CEDAR ST & BENTON ST,42.65534,-84.53311,,,,,,0
3333,3333,NBD Cedar past Roth Dr,S CEDAR ST & E I 96,42.65976,-84.53735,,,,,,0
3334,3334,NBD Pennsylvania past Pierpoint,S PENNSYLVANIA AVE & PENNSYLVANIA/E I 96 CONNECTOR RAMP,42.66317,-84.53814,,,,,,0
3335,3335,NBD Cedar past Miller Rd,S CEDAR ST & CURRY LN,42.67015,-84.54441,,,,,,0
3336,3336,NBD Cedar past Kaynorth Rd,S CEDAR ST & CURRY LN,42.67352,-84.54619,,,,,,0
3337,3337,NBD Cedar past Northrup St,S CEDAR ST & E NORTHRUP ST,42.67691,-84.54767,,,,,,0
3340,3340,NBD Cedar past Samantha Ave,S CEDAR ST & E EVERETTDALE AVE,42.68894,-84.54793,,,,,,0
3342,3342,NBD Cedar past Hunter Blvd,S CEDAR ST & E ROUSE ST,42.694975,-84.547995,,,,,,0
3343,3343,NBD Cedar past Holmes Rd,S CEDAR ST & E ROUSE ST,42.697847,-84.547968,,,,,,0
3344,3344,NBD Cedar past Brookland Blvd,S CEDAR ST & E HODGE AVE,42.70015,-84.54793,,,,,,0
3345,3345,NBD Cedar past Paris Ave,S CEDAR ST & DENVER ST,42.702204,-84.547965,,,,,,0
3347,3347,NBD Cedar past Tisdale Ave,S CEDAR ST & E ROCKFORD RD,42.707305,-84.547937,,,,,,0
3348,3348,NBD Cedar past Riley St,S CEDAR ST & WOODROW AVE,42.7099,-84.547911,,,,,,0
3349,3349,NBD Cedar before Norman St,S CEDAR ST & NORMAN ST,42.71297,-84.54736,,,,,,0
3350,3350,NBD Cedar past Isbell St,S CEDAR ST & ISBELL ST,42.7145,-84.54686,,,,,,0
3351,3351,NBD Cedar past Baker St,S CEDAR ST & BAKER ST,42.71677,-84.54613,,,,,,0
3353,3353,EBD Kalamazoo past Beech St,E KALAMAZOO ST & BEECH ST,42.729888,-84.543684,,,,,,0
3354,3354,EBD Kalamazoo past S Hosmer St,E KALAMAZOO ST & S HOSMER ST,42.72986,-84.540048,,,,,,0
3355,3355,EBD Kalamazoo past S Pennsylvania,E KALAMAZOO ST & BINGHAM ST,42.729841,-84.537456,,,,,,0
3356,3356,EBD Kalamazoo past S Holmes St,E KALAMAZOO ST & S HOLMES ST,42.729856,-84.532432,,,,,,0
3363,3363,SBD Aurelius past E Mt Hope Ave,AURELIUS RD & FOREST RD,42.711535,-84.523349,,,,,,0
3366,3366,SBD Stoneleigh past Forest Rd,,42.703638,-84.51502,,,,,,0
3367,3367,SBD Stoneleigh before Fireside Dr,,42.701061,-84.515011,,,,,,0
3368,3368,SBD Stoneleigh past Wabash Rd,,42.697777,-84.515002,,,,,,0
3369,3369,WBD Provincial House at Stoneleigh,,42.696722,-84.516858,,,,,,0
3370,3370,WBD Provincial House past Callihan,,42.696483,-84.521315,,,,,,0
3371,3371,SBD Aurelius past Irvington Ave,,42.694552,-84.523428,,,,,,0
3372,3372,SBD Aurelius past Luwanna Dr,,42.692914,-84.52343,,,,,,0
3373,3373,SBD Aurelius past Lourdes Ct,,42.691366,-84.523444,,,,,,0
3374,3374,SBD Aurelius past Cavanaugh Rd,,42.689756,-84.523433,,,,,,0
3375,3375,SBD Aurelius past Irene St,,42.686418,-84.523462,,,,,,0
3378,3378,NBD Dunckel before Jolly,,42.682252,-84.513413,,,,,,0
3380,3380,EBD Beau Jardin before Belle Chase,3029 BEAU JARDIN DR & FIVE OAKS DR,42.684441,-84.509408,,,,,,0
3381,3381,NBD Trappers Cove past Beau Jardin,TRAPPERS COVE TRL & BEAU JARDIN DR,42.68493,-84.504731,,,,,,0
3385,3385,NBD Aurelius past Irene St,AURELIUS RD & IRENE ST,42.686892,-84.523351,,,,,,0
3386,3386,NBD Aurelius past Cavanaugh Rd,AURELIUS RD & E CAVANAUGH RD,42.690943,-84.5233,,,,,,0
3387,3387,NBD Aurelius past Luwanna Rd,AURELIUS RD & LUWANNA DR,42.693218,-84.523332,,,,,,0
3388,3388,NBD Aurelius past Irvington Ave,AURELIUS RD & GREENWICH CT,42.695062,-84.523317,,,,,,0
3389,3389,EBD Stoneleigh past Prov. House,STONELEIGH DR & CALLIHAN CT,42.696703,-84.515544,,,,,,0
3390,3390,NBD Stoneleigh past Fireside Dr,STONELEIGH DR & FIRESIDE DR,42.701454,-84.5149,,,,,,0
3391,3391,NBD Stoneleigh past Tammany Ave,STONELEIGH DR & ARBOR FOREST DR,42.703163,-84.51491,,,,,,0
3393,3393,WBD Forest Rd before Aurelius Rd,FOREST RD & AURORA DR,42.704662,-84.521846,,,,,,0
3394,3394,NBD Aurelius past Mt Hope Ave,AURELIUS RD & E MOUNT HOPE AVE,42.712134,-84.523189,,,,,,0
3402,3402,WBD  Kalamazoo before Holmes St,E KALAMAZOO ST & S HOLMES ST,42.729963,-84.532284,,,,,,0
3405,3405,WBD Kalamazoo before Beech St,E KALAMAZOO ST & BEECH ST,42.730004,-84.543733,,,,,,0
3417,3417,SBD Pennsylvania past Alden Dr,S PENNSYLVANIA AVE & ALDEN DR,42.69975,-84.53817,,,,,,0
3444,3444,NBD Waverly past Old Farm Ln,S WAVERLY RD & OLD FARM LN,42.674296,-84.602983,,,,,,0
3445,3445,NBD Waverly past Hartford Rd,S WAVERLY RD & PHOENIX DR,42.680408,-84.602984,,,,,,0
3446,3446,NBD Waverly before Jolly,S WAVERLY RD,42.682752,-84.602996,,,,,,0
3447,3447,EBD Jolly past Wexford Rd,W JOLLY RD & CONNERS AVE,42.683074,-84.597153,,,,,,0
3448,3448,EBD Jolly before Wise Rd,W JOLLY RD & WAINWRIGHT AVE,42.683056,-84.593311,,,,,,0
3449,3449,EBD Jolly past Ingham St,W JOLLY RD & INGHAM ST,42.683029,-84.588057,,,,,,0
3450,3450,EBD Jolly past Sidney St,W JOLLY RD & RICHMOND ST,42.68302,-84.585197,,,,,,0
3451,3451,EBD Jolly past Pleasant Grove Rd,W JOLLY RD & PLEASANT GROVE RD,42.683011,-84.58203,,,,,,0
3452,3452,EBD Jolly past Hughes Rd,W JOLLY RD & CHRISTIANSEN RD,42.683019,-84.578642,,,,,,0
3453,3453,EBD Jolly at Tressa Dr,W JOLLY RD & TRESSA DR,42.683018,-84.57275,,,,,,0
3455,3455,NBD MLK past Vincent Ct,S MARTIN LUTHER KING JR BLVD & VINCENT CT,42.687518,-84.567556,,,,,,0
3456,3456,NBD MLK past Pierce Rd,S MARTIN LUTHER KING JR BLVD & PIERCE RD,42.690292,-84.567493,,,,,,0
3457,3457,NBD MLK past Le Grand Dr,S MARTIN LUTHER KING JR BLVD & LEGRAND DR,42.694363,-84.567442,,,,,,0
3458,3458,NBD MLK before Holmes Rd,S MARTIN LUTHER KING JR BLVD & WARWICK DR,42.696484,-84.567331,,,,,,0
3459,3459,NBD MLK past Holmes Rd,S MARTIN LUTHER KING JR BLVD & SOUTHLAND ST,42.698237,-84.567257,,,,,,0
3460,3460,NBD MLK past Southland Ave,S MARTIN LUTHER KING JR BLVD & LOA ST,42.700626,-84.56728,,,,,,0
3461,3461,NBD MLK past Dunlap St,S Martin Luther King Jr Blvd & Dunlap St,42.70288,-84.56729,,,,,,0
3462,3462,NBD MLK past Rundle Ave,S Martin Luther King Jr Blvd & Rundle,42.70639,-84.5674,,,,,,0
3465,3465,NBD MLK past Mt Hope Ave,S Martin Luther King Jr Blvd & Mt Hope,42.71235,-84.5674,,,,,,0
3467,3467,NBD MLK before Moores River Dr,S MARTIN LUTHER KING JR BLVD & MOORES RIVER DR,42.718782,-84.567236,,,,,,0
3468,3468,NBD MLK past Olds Ave,S MARTIN LUTHER KING JR BLVD & WILLIAM ST,42.723998,-84.567197,,,,,,0
3469,3469,NBD MLK before W Hillsdale St,S Martin Luther King Jr Blvd & Hillsdale,42.72767,-84.56724,,,,,,0
3470,3470,NBD MLK past W Kalamazoo St,S Martin Luther King Jr Blvd & Kalamazoo,42.73038,-84.56679,,,,,,0
3472,3472,SBD MLK past Kalamazoo St,S MARTIN LUTHER KING JR BLVD & KINGSLEY CT,42.729036,-84.567858,,,,,,0
3474,3474,SBD MLK before William St,S MARTIN LUTHER KING JR BLVD & W MAIN ST,42.724733,-84.569837,,,,,,0
3476,3476,SBD MLK past Pulaski St,S MARTIN LUTHER KING JR BLVD & BRAMAN ST,42.717798,-84.567838,,,,,,0
3479,3479,S MLK past Mt Hope Ave,S MARTIN LUTHER KING JR BLVD & W MOUNT HOPE AVE,42.711686,-84.56789,,,,,,0
3481,3481,SBD MLK past Gordon Ave,S MARTIN LUTHER KING JR BLVD & GORDON AVE,42.708501,-84.567891,,,,,,0
3483,3483,SBD MLK past Rundle Ave,S MARTIN LUTHER KING JR BLVD & VICTOR AVE,42.705628,-84.567708,,,,,,0
3484,3484,SBD MLK before Dunlap St,S Martin Luther King Jr Blvd & Dunlap St,42.70269,-84.56746,,,,,,0
3485,3485,SBD MLK at Southland Ave,S MARTIN LUTHER KING JR BLVD & W HOLMES RD,42.699946,-84.567416,,,,,,0
3486,3486,SBD MLK past Holmes Rd,S MARTIN LUTHER KING JR BLVD & WARWICK DR,42.697074,-84.567441,,,,,,0
3487,3487,SBD MLK past Warwick Dr,S MARTIN LUTHER KING JR BLVD & WARWICK DR,42.694676,-84.56759,,,,,,0
3489,3489,SBD MLK past Mary Ave,S MARTIN LUTHER KING JR BLVD & PIERCE RD,42.690668,-84.56764,,,,,,0
3490,3490,SBD MLK past Reo Rd,S MARTIN LUTHER KING JR BLVD & VINCENT CT,42.687196,-84.567716,,,,,,0
3491,3491,SBD MLK past Briarfield Dr,S MARTIN LUTHER KING JR BLVD & N BRIARFIELD DR,42.684556,-84.56779,,,,,,0
3492,3492,WBD Jolly past MLK Blvd,W JOLLY RD & S MARTIN LUTHER KING JR BLVD,42.683134,-84.569338,,,,,,0
3493,3493,WBD Jolly past Tressa Dr,W JOLLY RD & TRESSA DR,42.683135,-84.573069,,,,,,0
3494,3494,WBD Jolly before Hughes Rd,W JOLLY RD & CHRISTIANSEN RD,42.683127,-84.578446,,,,,,0
3495,3495,WBD Jolly before Richmond St,W JOLLY RD & PLEASANT GROVE RD,42.683127,-84.583405,,,,,,0
3496,3496,WBD Jolly past Sidney St,W JOLLY RD & SIDNEY ST,42.683136,-84.586584,,,,,,0
3497,3497,WBD Jolly past Ingham St,W JOLLY RD & INGHAM ST,42.683145,-84.588831,,,,,,0
3498,3498,WBD Jolly past Wainwright Ave,W JOLLY RD & WAINWRIGHT AVE,42.683164,-84.593041,,,,,,0
3499,3499,WBD Jolly past Conners Ave,W JOLLY RD & CONNERS AVE,42.683181,-84.598166,,,,,,0
3501,3501,SBD Waverly past Jolly Rd,S WAVERLY RD & HARTFORD RD,42.682627,-84.603144,,,,,,0
3502,3502,SBD Waverly past Hartford Rd,S WAVERLY RD & PHOENIX DR,42.680291,-84.603131,,,,,,0
3520,3520,NBD Pennsylvania past  Miller,S PENNSYLVANIA AVE & ANDREW JACKSON DR,42.670038,-84.538057,,,,,,0
3521,3521,NBD Pennsylvania past And. Jack.,S PENNSYLVANIA AVE & ANDREW JACKSON DR,42.67133,-84.53808,,,,,,0
3522,3522,NBD Pennsylvania past Keystone Av,S PENNSYLVANIA AVE & DENNIS ST,42.67558,-84.53807,,,,,,0
3523,3523,NBD  Pennsylvania past Dennis St,S PENNSYLVANIA AVE & SHIRLEY ST,42.67946,-84.53809,,,,,,0
3524,3524,NBD Pennsylvania past Willema St,S PENNSYLVANIA AVE & SIMS CT,42.68129,-84.5381,,,,,,0
3525,3525,NBD Pennsylvania past Jolly Rd,S PENNSYLVANIA AVE & E JOLLY RD,42.68328,-84.53808,,,,,,0
3526,3526,NBD Pennsylvania past Kendon Dr,S PENNSYLVANIA AVE & KENDON DR,42.68659,-84.53804,,,,,,0
3527,3527,NBD Pennsylvania past Samantha St,S PENNSYLVANIA AVE & E CAVANAUGH RD,42.68846,-84.538,,,,,,0
3528,3528,NBD Pennsylvania past Cavanaugh,S PENNSYLVANIA AVE & E CAVANAUGH RD,42.69039,-84.53798,,,,,,0
3533,3533,NBD Pennsylvania before Alden Sq,S PENNSYLVANIA AVE & S DEXTER DR,42.6988,-84.538047,,,,,,0
3534,3534,NBD Penn past Health Care Dr.,S PENNSYLVANIA AVE & HEALTH CARE DR,42.70486,-84.53805,,,,,,0
3535,3535,NBD Pennsylvania  past Pacific Av,S PENNSYLVANIA AVE & PACIFIC AVE,42.7086,-84.53804,,,,,,0
3536,3536,NBD Pennsylvania past Kenwood Av,S PENNSYLVANIA AVE & KENWOOD AVE,42.71036,-84.53803,,,,,,0
3538,3538,NBD Pennsylvania past Parkdale Ave,S PENNSYLVANIA AVE & BAKER ST,42.71526,-84.53801,,,,,,0
3539,3539,NBD Pennsylvania before Lindbergh,S PENNSYLVANIA AVE & LINDBERGH DR,42.71747,-84.538,,,,,,0
3540,3540,NBD Pennsylvania before Haco Dr,S PENNSYLVANIA AVE & CANADIAN NATIONAL RAILWAY,42.721099,-84.537942,,,,,,0
3541,3541,NBD Pennsylvania past Hazel St,S PENNSYLVANIA AVE & CLIMAX ST,42.72378,-84.53803,,,,,,0
3542,3542,NBD Pennsylvania past Heald Pl,S PENNSYLVANIA AVE & HEALD PL,42.72746,-84.53793,,,,,,0
3543,3543,NBD Pennsylvania past Kalamazoo,S PENNSYLVANIA AVE & E KALAMAZOO ST,42.73038,-84.53789,,,,,,0
3544,3544,NBD Pennsylvania past Eureka St,S PENNSYLVANIA AVE & E MICHIGAN AVE,42.73265,-84.53785,,,,,,0
3548,3548,NBD Pennsylvania past Saginaw St,N PENNSYLVANIA AVE & E SAGINAW ST,42.74125,-84.537704,,,,,,0
3549,3549,NBD Pennsylvania past Oakland Ave,N PENNSYLVANIA AVE & CADY CT,42.743925,-84.537727,,,,,,0
3550,3550,NBD Pennsylvania past Porter St,N PENNSYLVANIA AVE & PERSONS CT,42.745778,-84.537713,,,,,,0
3551,3551,EBD Pennsylvania before Grand River,,42.747147,-84.537687,,,,,,0
3552,3552,NBD Vermont past Grand River Av,VERMONT AVE & E GRAND RIVER AVE,42.74761,-84.534517,,,,,,0
3553,3553,NBD Vermont before Oak St,VERMONT AVE & E GRAND RIVER AVE,42.75008,-84.534527,,,,,,0
3561,3561,NBD N East past Orchard Glen,N EAST ST & E FREDERICK AVE,42.767086,-84.542672,,,,,,0
3562,3562,WBD Sheridan past Cedar St,E SHERIDAN RD & CEDAR ST,42.769728,-84.547623,,,,,,0
3564,3564,WBD Sheridan past Creston Ave,E SHERIDAN RD & CRESTON AVE,42.769748,-84.55249,,,,,,0
3565,3565,SBD Turner past Sheridan Rd,TURNER ST & E SHERIDAN RD,42.769364,-84.555834,,,,,,0
3566,3566,SBD Turner past Frederick St,TURNER ST & W FREDERICK AVE,42.76769,-84.555835,,,,,,0
3567,3567,SBD Turner before Paulson St,TURNER ST & CARRIER ST,42.764916,-84.555836,,,,,,0
3568,3568,SBD Turner before Filley,TURNER ST & W JACKSON ST,42.76216,-84.555531,,,,,,0
3569,3569,SBD Turner past Randolph St,TURNER ST & W RANDOLPH ST,42.759896,-84.554365,,,,,,0
3573,3573,EBD Gier past East St,E GIER ST & 7TH AVE,42.758782,-84.542408,,,,,,0
3575,3575,EBS Gier past Eighth Ave,E GIER ST & 8TH AVE,42.75878,-84.538144,,,,,,0
3577,3577,SBD Vermont past North St,VERMONT AVE & OAK ST,42.751306,-84.534673,,,,,,0
3578,3578,SBD Vermont Ave before Taft St,VERMONT AVE & TAFT ST,42.748801,-84.534688,,,,,,0
3579,3579,WBD Grand River past Massachusetts,E GRAND RIVER AVE & TAFT ST,42.747468,-84.536409,,,,,,0
3580,3580,SBD Pennsylvania past Grand River,N PENNSYLVANIA AVE & EASTWOOD TOWNE CENTER,42.746816,-84.537847,,,,,,0
3583,3583,WBD Oakland past Ballard St,E OAKLAND AVE & PRUDDEN ST,42.74372,-84.540098,,,,,,0
3584,3584,SBD Cedar past Oakland Ave,N CEDAR ST & MONROE ST,42.743329,-84.546561,,,,,,0
3585,3585,SBD Cedar before E Saginaw St,N CEDAR ST & MONROE ST,42.74179,-84.546574,,,,,,0
3586,3586,WBD Shiawassee past MLK Blvd,W SHIAWASSEE ST & N MARTIN LUTHER KING JR BLVD,42.73743,-84.567547,,,,,,0
3587,3587,WBD Shiawassee past Carey St,W SHIAWASSEE ST & HOWE ST,42.737439,-84.570238,,,,,,0
3588,3588,WBD Shiawassee past Westmoreland,W SHIAWASSEE ST & WESTMORELAND AVE,42.737422,-84.571884,,,,,,0
3590,3590,SBD Jenison past Ottawa St,N JENISON AVE & W OTTAWA ST,42.734558,-84.572819,,,,,,0
3591,3591,WBD Michigan past Jenison Ave,W MICHIGAN AVE & S JENISON AVE,42.733843,-84.573654,,,,,,0
3592,3592,SBD McPherson past Michigan,MCPHERSON AVE & S JENISON AVE,42.732322,-84.575055,,,,,,0
3593,3593,SBD McPherson past Kalamazoo St,MCPHERSON AVE & W KALAMAZOO ST,42.730407,-84.575842,,,,,,0
3594,3594,SBD McPherson past Lenawee St,MCPHERSON AVE & W KALAMAZOO ST,42.728761,-84.577193,,,,,,0
3596,3596,SBD Everett past Malcolm X,EVERETT DR & WILLIAM ST,42.725289,-84.577244,,,,,,0
3604,3604,WBD Victor past Pleasant Grove Rd,VICTOR AVE & HAMPDEN DR,42.7053,-84.583106,,,,,,0
3605,3605,WBD Victor  before Viking St,VICTOR AVE & HAMPDEN DR,42.705309,-84.58625,,,,,,0
3606,3606,WBD Victor before Deerfield Ave,VICTOR AVE & BEDFORD ST,42.705318,-84.591395,,,,,,0
3607,3607,SBD Deerfield past Brisbane Dr,S DEERFIELD AVE & FAUNA AVE,42.703761,-84.591984,,,,,,0
3608,3608,SBD Deerfield past Dunlap St,S DEERFIELD AVE & HERRICK DR,42.701623,-84.592009,,,,,,0
3609,3609,SBD Deerfield before Holmes Rd,,42.697999,-84.591972,,,,,,0
3613,3613,NBD Waverly at Hunters Ridge Dr,,42.69935,-84.60301,,,,,,0
3614,3614,NBD Waverly before Sandhurst Dr,S WAVERLY RD & SANDHURST DR,42.702813,-84.603035,,,,,,0
3615,3615,NBD Waverly past Glasgow Dr,S WAVERLY RD & GLASGOW DR,42.70649,-84.602986,,,,,,0
3616,3616,EBD Moores River past Waverly Rd,MOORES RIVER DR & HERRICK DR,42.708951,-84.601685,,,,,,0
3617,3617,EBD Mt Hope after Medbury Ave,W MOUNT HOPE AVE & MEDBURN AVE,42.712065,-84.595975,,,,,,0
3618,3618,EBD W Mt Hope past Bedford Dr,W MOUNT HOPE AVE & LEWTON PL,42.712056,-84.590375,,,,,,0
3619,3619,EBD Mt Hope past Edwin Pl,W MOUNT HOPE AVE & EDWIN PL,42.712056,-84.586875,,,,,,0
3621,3621,SBD Pleasant Grove past Cooper,PLEASANT GROVE RD & COOPER AVE,42.709469,-84.582295,,,,,,0
3622,3622,SBD Pleasant Grove past Colonial,PLEASANT GROVE RD & COLONIAL PLZ,42.707483,-84.582295,,,,,,0
3636,3636,NBD Everett before Malcolm X,EVERETT DR & WILLIAM ST,42.725459,-84.577096,,,,,,0
3638,3638,NBD McPherson past Lenawee St,MCPHERSON AVE & W LENAWEE ST,42.729181,-84.576653,,,,,,0
3639,3639,NBD McPherson past Kalamazoo St,MCPHERSON AVE & W KALAMAZOO ST,42.730863,-84.575387,,,,,,0
3641,3641,EBD Michigan past McPherson Ave,W MICHIGAN AVE & MCPHERSON AVE,42.733744,-84.574096,,,,,,0
3642,3642,NBD Jenison past Ottawa St,N JENISON AVE & W IONIA ST,42.735059,-84.572659,,,,,,0
3643,3643,WBD Oakland past Washington Av,W OAKLAND AVE & N CAPITOL AVE,42.743564,-84.552482,,,,,,0
3644,3644,WBD Oakland past Walnut St,W OAKLAND AVE & N WALNUT ST,42.743592,-84.557212,,,,,,0
3645,3645,WBD Oakland past Pine St,W OAKLAND AVE & N WALNUT ST,42.743602,-84.560235,,,,,,0
3646,3646,WBD Oakland past Wisconsin Ave,W OAKLAND AVE & EDGEWOOD CT,42.742977,-84.56327,,,,,,0
3647,3647,WBD Oakland past MLK Blvd,W OAKLAND AVE & N MARTIN LUTHER KING JR BLVD,42.742996,-84.567668,,,,,,0
3648,3648,WBD Oakland past Holten St,W OAKLAND AVE & CLAYTON ST,42.743023,-84.570027,,,,,,0
3649,3649,WBD Oakland past Jenison Ave,W OAKLAND AVE & N JENISON AVE,42.743033,-84.573246,,,,,,0
3651,3651,SBD Verlinden past Genesee Dr,N VERLINDEN AVE & N GENESEE ST,42.740223,-84.577227,,,,,,0
3653,3653,SBD Verlinden past Shiawassee St,N VERLINDEN AVE & W SHIAWASSEE ST,42.73733,-84.577234,,,,,,0
3655,3655,SBD Verlinden before Michigan Ave,N VERLINDEN AVE & INVERNESS AVE,42.734488,-84.577204,,,,,,0
3656,3656,WBD Michigan before Clare St,W MICHIGAN AVE & N VERLINDEN AVE,42.733915,-84.58159,,,,,,0
3657,3657,WBD Michigan past Haze St,W MICHIGAN AVE & HAZE ST,42.733916,-84.584452,,,,,,0
3658,3658,WBD Michigan past Alger St,W MICHIGAN AVE & S ROSEMARY ST,42.733916,-84.586995,,,,,,0
3660,3660,WBD Michigan past Brynford Ave,W MICHIGAN AVE & N DEERFIELD AVE,42.733916,-84.59138,,,,,,0
3661,3661,WBD Michigan past Bon Air Rd,W MICHIGAN AVE & N DEERFIELD AVE,42.733925,-84.594771,,,,,,0
3662,3662,WBD Michigan at Stoner Rd,W MICHIGAN AVE & STONER RD,42.733925,-84.597965,,,,,,0
3663,3663,SBD Waverly past Michigan Ave,S WAVERLY RD & OTIS AVE,42.733227,-84.603001,,,,,,0
3665,3665,SBD Waverly before St Joseph St,S WAVERLY RD & BLANCHE AVE,42.727187,-84.603074,,,,,,0
3666,3666,NBD Waverly past St Joseph St,S WAVERLY RD & BLANCHE AVE,42.727416,-84.60284,,,,,,0
3667,3667,NBD Waverly past Kalamazoo St,S WAVERLY RD & W KALAMAZOO ST,42.730847,-84.602829,,,,,,0
3668,3668,NBD Waverly before W Michigan Ave,S WAVERLY RD & OTIS AVE,42.732565,-84.602817,,,,,,0
3669,3669,EBD Michigan past Waverly Rd,W MICHIGAN AVE & CLEMENT RD,42.733827,-84.60219,,,,,,0
3670,3670,EBD Michigan past Stoner Rd,W MICHIGAN AVE & STONER RD,42.733791,-84.597621,,,,,,0
3671,3671,EBD Michigan past Bon Air Rd,W MICHIGAN AVE & BON AIR RD,42.733764,-84.593972,,,,,,0
3672,3672,EBD Michigan at Brynford Ave,W MICHIGAN AVE & N DEERFIELD AVE,42.733782,-84.591159,,,,,,0
3673,3673,EBD Michigan past Rosemary Ave,W MICHIGAN AVE & ALGER ST,42.733791,-84.587105,,,,,,0
3674,3674,EBD Michigan past Hathaway St,W MICHIGAN AVE & HATHAWAY ST,42.733781,-84.584833,,,,,,0
3675,3675,EBD Michigan past Clare St,W MICHIGAN AVE & N VERLINDEN AVE,42.733781,-84.581332,,,,,,0
3676,3676,NBD Verlinden past Inverness Av,N VERLINDEN AVE & FORBES ST,42.735024,-84.577032,,,,,,0
3677,3677,NBD Verlinden past Shiawassee St,N VERLINDEN AVE & S GENESEE DR,42.737344,-84.577014,,,,,,0
3679,3679,NBD Verlinden past Genesee Dr,N VERLINDEN AVE & N GENESEE ST,42.740384,-84.577055,,,,,,0
3680,3680,EBD Saginaw past Cawood St,W SAGINAW ST & CAWOOD ST,42.740957,-84.575052,,,,,,0
3681,3681,EBD Saginaw before Westmoreland,W SAGINAW ST & WESTMORELAND AVE,42.740947,-84.572214,,,,,,0
3685,3685,EBD Saginaw before Larch Street,E SAGINAW ST & N CEDAR ST,42.740814,-84.545002,,,,,,0
3687,3687,EBD Saginaw before Clark St,E SAGINAW ST & WORTHINGTON DR,42.740853,-84.532213,,,,,,0
3688,3688,EBD Saginaw past Maryland Ave,E SAGINAW ST & MARYLAND AVE,42.740843,-84.529264,,,,,,0
3690,3690,EBD Saginaw before Clemens Ave,E SAGINAW ST & N CLEMENS AVE,42.740876,-84.52365,,,,,,0
3691,3691,EBD Saginaw before Magnolia Ave,E SAGINAW ST & N MAGNOLIA AVE,42.740874,-84.520542,,,,,,0
3702,3702,WBD Hopkins past Chester Rd,HOPKINS AVE & KIMBERLY DR,42.748457,-84.511675,,,,,,0
3703,3703,WBD Hopkins past Downer St,HOPKINS AVE & WEBER DR,42.748477,-84.515434,,,,,,0
3704,3704,NBD Hayford past Hopkins Ave,N HAYFORD AVE & HOPKINS AVE,42.748712,-84.518899,,,,,,0
3705,3705,NBD Hayford past Ridgeline Dr,N HAYFORD AVE & RIDGELINE DR,42.752013,-84.518232,,,,,,0
3707,3707,NBD Hayford past Groesbeck Ave,N HAYFORD AVE & RIDGELINE DR,42.753928,-84.517677,,,,,,0
3708,3708,WBDTulane past Hayford Ave,TULANE DR & N HAYFORD AVE,42.755852,-84.51765,,,,,,0
3709,3709,WBD Tulane before Northampton Way,TULANE DR & NORTHAMPTON WAY,42.756892,-84.521544,,,,,,0
3711,3711,NBD Wood past Northampton Way,WOOD ST & PEPPERTREE LN,42.757278,-84.523006,,,,,,0
3713,3713,NBD Wood before Lake Lansing Rd,WOOD ST & LAKE LANSING RD,42.7599,-84.522991,,,,,,0
3720,3720,EBD Grand River past Delta St,N GRAND RIVER AVE & DELTA ST,42.764349,-84.582284,,,,,,0
3725,3725,SBD Wood past Lake Lansing  Rd,WOOD ST & LAKE LANSING RD,42.760016,-84.523138,,,,,,0
3726,3726,SBD Wood past Barritt St,WOOD ST & PEPPERTREE LN,42.757761,-84.523153,,,,,,0
3727,3727,EBD Tulane past Northampton Way,TULANE DR & NORTHAMPTON WAY,42.756686,-84.521544,,,,,,0
3728,3728,EBD Tulane before Hayford Ave,TULANE DR & NORTHAMPTON WAY,42.755754,-84.519076,,,,,,0
3729,3729,SBD Hayford after Tulane Dr,N HAYFORD AVE & NORTHAMPTON WAY,42.755378,-84.517429,,,,,,0
3730,3730,SBD Hayford past Groesbeck Ave,N HAYFORD AVE & NORTHAMPTON WAY,42.753427,-84.517849,,,,,,0
3731,3731,SBD Hayford past Ridgeline Dr,N HAYFORD AVE & RIDGELINE DR,42.75162,-84.518527,,,,,,0
3732,3732,EBD Hopkins past Hayford,HOPKINS AVE & N HAYFORD AVE,42.74838,-84.518347,,,,,,0
3733,3733,EBD Hopkins past Downer Ave,HOPKINS AVE & BLAKE AVE,42.74836,-84.515078,,,,,,0
3737,3737,WBD Grand River before Merrill St,E GRAND RIVER AVE & WOODRUFF AVE,42.743187,-84.51259,,,,,,0
3738,3738,WBD Grand River past Downer Ave,E GRAND RIVER AVE & N FRANCIS AVE,42.743367,-84.515453,,,,,,0
3739,3739,WBD Grand River past Foster Av,E GRAND RIVER AVE & N FOSTER AVE,42.74336,-84.518364,,,,,,0
3740,3740,WBD Oakland past June St,E OAKLAND AVE & MARYLAND AVE,42.743384,-84.528562,,,,,,0
3741,3741,WBD Oakland past Mahlon St,E OAKLAND AVE & MAHLON ST,42.743573,-84.53108,,,,,,0
3742,3742,WBD Oakland past Cleveland St,E OAKLAND AVE & FARRAND ST,42.743628,-84.533992,,,,,,0
3746,3746,NBD Washington past Oakland Av,N WASHINGTON AVE & W KILBORN ST,42.744172,-84.552064,,,,,,0
3747,3747,NBD Washington past Maple St,N WASHINGTON AVE & E GRAND RIVER AVE,42.746284,-84.552051,,,,,,0
3748,3748,EBD Grand River before Turner,E GRAND RIVER AVE & CENTER ST,42.747375,-84.550489,,,,,,0
3750,3750,NBD Turner before Beaver St,TURNER ST & CLINTON ST,42.750194,-84.549505,,,,,,0
3752,3752,WBD North before Capitol Ave,W NORTH ST & N CAPITOL AVE,42.752253,-84.55357,,,,,,0
3753,3753,WBD Grand River past Seager St,N GRAND RIVER AVE & SEAGAR ST,42.753856,-84.556371,,,,,,0
3754,3754,WBD Grand River before Spikes Ln,N GRAND RIVER AVE & SADIE CT,42.755521,-84.55927,,,,,,0
3755,3755,WBD Grand Riv past Gr. Riv. Access,N GRAND RIVER AVE & GRAND RIVER ACCESS,42.757527,-84.562784,,,,,,0
3756,3756,WBD Grand River before MLK Access,N GRAND RIVER AVE & COOLIDGE ST,42.759022,-84.565351,,,,,,0
3757,3757,WBD Grand River before Hollywood St,N GRAND RIVER AVE & HOLLYWOOD ST,42.760553,-84.568742,,,,,,0
3758,3758,WBD Grand River past Cynwood St,N GRAND RIVER AVE & CYNWOOD ST,42.761332,-84.571261,,,,,,0
3759,3759,WBD Grand River past Tecumseh Av,N GRAND RIVER AVE & TECUMSEH AVE,42.762174,-84.574186,,,,,,0
3760,3760,WBD Grand River past Westwood Av,N GRAND RIVER AVE & TECUMSEH AVE,42.76297,-84.577086,,,,,,0
3767,3767,NBD Waverly past Delta River Dr,N WAVERLY RD & STANDARD DR,42.764484,-84.602697,,,,,,0
3768,3768,NBD Waverly past Wilson Ave,N WAVERLY RD & STANDARD DR,42.765817,-84.602685,,,,,,0
3769,3769,NBD Waverly past Franette Rd,N WAVERLY RD & FRANETTE RD,42.767652,-84.601739,,,,,,0
3770,3770,EBD Grand River past Waverly,N GRAND RIVER AVE & N WAVERLY RD,42.769164,-84.599539,,,,,,0
3771,3771,EBD Grand River before Sheffer Av,N GRAND RIVER AVE & SHEFFER AVE,42.768305,-84.596442,,,,,,0
3772,3772,EBD Grand River past Young Ave,N GRAND RIVER AVE & YOUNG AVE,42.767553,-84.593738,,,,,,0
3777,3777,EBD Grand River past Grandell Av,N GRAND RIVER AVE & BENTON BLVD,42.765495,-84.586302,,,,,,0
3778,3778,EBD Grand River past Benton Blvd,N GRAND RIVER AVE & BENTON BLVD,42.764725,-84.583611,,,,,,0
3779,3779,EBD Grand River past Delta River,N GRAND RIVER AVE & DELTA ST,42.763364,-84.578892,,,,,,0
3780,3780,EBD Grand River past Edgebrook,N GRAND RIVER AVE & EDGEBROOK DR,42.762773,-84.576729,,,,,,0
3781,3781,EBD Grand Riv. past Tecumseh River,N GRAND RIVER AVE & STOCKMAN CT,42.761994,-84.573928,,,,,,0
3782,3782,EBD Grand River before Cynwood St,N GRAND RIVER AVE & MILDRED ST,42.761108,-84.570843,,,,,,0
3783,3783,EBD Grand River past Hollywood,N GRAND RIVER AVE & HOLLYWOOD ST,42.760517,-84.568927,,,,,,0
3785,3785,EBD Grand River past Coolidge St,N GRAND RIVER AVE & COOLIDGE ST,42.758162,-84.564074,,,,,,0
3786,3786,EBD Grand River past Culver St,N GRAND RIVER AVE & RAYMOND DR,42.756694,-84.561469,,,,,,0
3787,3787,EBD Grand River past Sadie Ct,N GRAND RIVER AVE & SADIE CT,42.755405,-84.55927,,,,,,0
3788,3788,EBD Grand River before Seager St,N GRAND RIVER AVE & SEAGAR ST,42.753561,-84.556039,,,,,,0
3789,3789,EBD North before Washington Ave,W NORTH ST & N CAPITOL AVE,42.751985,-84.553313,,,,,,0
3792,3792,WBD Grand River past Washington,W GRAND RIVER AVE & E GRAND RIVER AVE,42.747484,-84.553106,,,,,,0
3794,3794,SBD Holmes past Malcolm X,S HOLMES ST & CLIMAX ST,42.724953,-84.533137,,,,,,0
3795,3795,SBD Holmes past Hazel St,S HOLMES ST & WALSH ST,42.722939,-84.533151,,,,,,0
3796,3796,EBD Perkins past Holmes St,PERKINS ST & BENSCH ST,42.720998,-84.532747,,,,,,0
3798,3798,EBD Perkins past Dakin St,PERKINS ST & DAKIN ST,42.720997,-84.530733,,,,,,0
3799,3799,EBD Perkins past Lathrop St,PERKINS ST & ALLEN ST,42.721031,-84.528522,,,,,,0
3801,3801,NBD Regent past Perkins St,REGENT ST & WALSH ST,42.721342,-84.523769,,,,,,0
3802,3802,NBD Regent before Malcolm X St,REGENT ST & WALSH ST,42.723427,-84.52373,,,,,,0
3804,3804,EBD Kalamazoo past S Magnolia Av,E KALAMAZOO ST & S HAYFORD AVE,42.72993,-84.519731,,,,,,0
3805,3805,EBD Kalamazoo past Foster,E KALAMAZOO ST & S FOSTER AVE,42.729928,-84.517286,,,,,,0
3821,3821,SBD Coolidge past Woodbrook Dr,COOLIDGE RD & FARWOOD DR,42.75187,-84.503561,,,,,,0
3831,3831,WBD Kalamazoo past S Francis Ave,E KALAMAZOO ST & S FRANCIS AVE,42.730035,-84.516819,,,,,,0
3833,3833,WBD Perkins past Regent St,PERKINS ST & REGENT ST,42.721145,-84.524088,,,,,,0
3834,3834,WBD Perkins past Shepard St,PERKINS ST & SHEPARD ST,42.721146,-84.526336,,,,,,0
3835,3835,WBD Perkins past Lathrop St,PERKINS ST & MCCULLOUGH ST,42.72113,-84.52878,,,,,,0
3836,3836,WBD Perkins past Dakin St,PERKINS ST & DAKIN ST,42.721095,-84.531015,,,,,,0
3838,3838,NBD Holmes past Walsh St,S HOLMES ST & E HAZEL ST,42.722689,-84.533004,,,,,,0
3840,3840,NBD Abbot past Library Ln,941 ABBOT RD & NORTHLAWN ST,42.743541,-84.483669,,,,,,0
3841,3841,NBD Abbot past Whitehills Dr,1135 ABBOT RD & E SAGINAW ST,42.745796,-84.48364,,,,,,0
3843,3843,NBD Abbot before Loree Dr,1600 ABBOT RD & E SAGINAW ST,42.74925,-84.483647,,,,,,0
3844,3844,NBD Abbot past Woodland Pass,,42.751559,-84.48357,,,,,,0
3845,3845,NBD Abbot Rampart Way,ABBOT RD & TAYLOR DR,42.753912,-84.483652,,,,,,0
3846,3846,NBD Abbot past Taylor Dr,ABBOT RD & ASHER CT,42.755487,-84.483662,,,,,,0
3857,3857,WBD Birch Row past Hagadorn Rd,BIRCH ROW DR & COACH HOUSE ST,42.758352,-84.463799,,,,,,0
3864,3864,SBD Abbot past Taylor Dr,ABBOT RD & TAYLOR DR,42.75504,-84.483797,,,,,,0
3865,3865,SBD Abbot past Rampart Way,ABBOT RD & RAMPART WAY,42.753465,-84.4838,,,,,,0
3866,3866,SBD Abbot before Abbott Woods Dr,ABBOT RD & ABBOTT WOODS DR,42.751272,-84.483791,,,,,,0
3867,3867,SBD Abbot past Loree Dr,ABBOT RD & ABBOTT WOODS DR,42.749232,-84.483795,,,,,,0
3868,3868,SBD Abbot past Saginaw St,1145 ABBOT RD & W SAGINAW ST,42.746002,-84.483775,,,,,,0
3869,3869,SBD Abbot past Northlawn St,ABBOT RD & NORTHLAWN ST,42.743657,-84.483816,,,,,,0
3870,3870,SBD Abbot past Centerlawn St,ABBOT RD & CENTERLAWN ST,42.741626,-84.483807,,,,,,0
3872,3872,NBD Harrison Rd at Huntington,342 N HARRISON RD & HUNTINGTON RD,42.736909,-84.493434,,,,,,0
3885,3885,EBD Lake Lansing Rd past Coolidge,W LAKE LANSING RD & COOLIDGE RD,42.76071,-84.502689,,,,,,0
3887,3887,EBD Lake Lansing Rd at Marfitt Rd,W LAKE LANSING RD & MARFITT RD,42.760743,-84.498486,,,,,,0
3888,3888,EBD Lk. Lansing Rd past Regency Dr,W LAKE LANSING RD & BURNT TREE LN,42.760087,-84.49464,,,,,,0
3889,3889,SBD Harrison Rd past Tarleton Ave,N HARRISON RD & W LAKE LANSING RD,42.759468,-84.493621,,,,,,0
3890,3890,SBD Harrison past Crown Blvd,N HARRISON RD & CROWN BLVD,42.755075,-84.49364,,,,,,0
3893,3893,SBD Harrison past Woodingham Dr,N HARRISON RD & WOODINGHAM DR,42.748256,-84.493687,,,,,,0
3894,3894,SBD Harrison past Longfellow Dr,N HARRISON RD & W SAGINAW ST,42.746475,-84.493665,,,,,,0
3895,3895,SBD Harrison before Northlawn St,N HARRISON RD & NORTHLAWN ST,42.743155,-84.493719,,,,,,0
3896,3896,SBD Harrison before Wildwood Dr,N HARRISON RD & SOUTHLAWN AVE,42.740605,-84.493686,,,,,,0
3899,3899,SBD Harrison before Lilac Ave,S HARRISON RD & LILAC AVE,42.725017,-84.493967,,,,,,0
3902,3902,SBD Harrison before Trowbridge Rd,S HARRISON RD & HARRISON RD,42.720418,-84.493974,,,,,,0
3924,3924,NBD Hagadorn before Ridgewood Dr,N HAGADORN RD & WOODSIDE DR,42.744406,-84.462179,,,,,,0
3933,3933,SBD Hagadorn past Burcham Dr,N HAGADORN RD & MOUNT VERNON AVE,42.740478,-84.462297,,,,,,0
3937,3937,SBD Hagadorn past Old Canton Ln,N HAGADORN RD & S HAGADORN RD,42.730841,-84.462193,,,,,,0
3944,3944,NBD Marsh before Tihart Rd,MARSH RD & 5TH AVE,42.732747,-84.410854,,,,,,0
3945,3945,NBD Marsh past Huntsville Rd,MARSH RD & HUNTSVILLE DR,42.736493,-84.409001,,,,,,0
3946,3946,NBD Marsh past Rolling Hills Dr,MARSH RD & HUNTSVILLE DR,42.738988,-84.407852,,,,,,0
3947,3947,NBD Marsh past Franklin St,MARSH RD & FRANKLIN ST,42.743069,-84.408099,,,,,,0
3948,3948,NBD Marsh past Haslett Rd,MARSH RD & HASLETT RD,42.747857,-84.408344,,,,,,0
3949,3949,NBD Marsh past Lake Rd,5859 MARSH RD & LAKE CT,42.749817,-84.4084,,,,,,0
3950,3950,NBD Marsh before Lake Lansing Rd,MARSH RD & LAKE DR,42.752197,-84.408492,,,,,,0
3961,3961,WBD Lake Lansing past Bois Isle,LAKE LANSING RD & LAC DU MONT DR,42.755509,-84.421985,,,,,,0
3964,3964,EBD Lake Lansing past Bayonne Ave,LAKE LANSING RD & BAYONNE AVE,42.753882,-84.416585,,,,,,0
3965,3965,EBD Lake Lansing past Cypress St,LAKE LANSING RD & HARVEY ST,42.753874,-84.41097,,,,,,0
3981,3981,SBD Dobie past Hamilton Rd,DOBIE RD & COUNTRY WAY DR E,42.716451,-84.410406,,,,,,0
3982,3982,SBD Dobie past Chief Okemos Cir,DOBIE RD & INDIAN WAY,42.714438,-84.4104,,,,,,0
3983,3983,SBD Dobie at Forest Hills,DOBIE RD & FOREST HILLS DR,42.71136,-84.410445,,,,,,0
3984,3984,SBD Dobie at Birchwood Dr,DOBIE RD & BIRCHWOOD DR,42.707181,-84.410431,,,,,,0
3985,3985,NBD Dobie before Hatch Rd,4234 DOBIE RD & HATCH RD,42.704371,-84.410267,,,,,,0
3987,3987,SBD Dobie at Algoma Dr,DOBIE RD & ALGOMA DR,42.687541,-84.410447,,,,,,0
3988,3988,SBD Dobie before E Jolly Rd,DOBIE RD & SPRING LAKE DR,42.684883,-84.410467,,,,,,0
3993,3993,NBD Okemos past W Jolly Rd,3520 OKEMOS RD & JOLLY RD,42.683821,-84.432356,,,,,,0
4003,4003,EBD Grand River past Van Atta,W GRAND RIVER AVE & OAK,42.712042,-84.377396,,,,,,0
4004,4004,EBD Grand River past Lay Ave,E GRAND RIVER AVE & CHURCHHILL DOWNS BLVD,42.689366,-84.307333,,,,,,0
4006,4006,EBD Grand River before Love St,W GRAND RIVER AVE & LOVE ST,42.687666,-84.299311,,,,,,0
4007,4007,EBD Grand River past Wint St,W GRAND RIVER AVE & VILLAGE DR E,42.687711,-84.295383,,,,,,0
4018,4018,EBD Grand River at Water St,E GRAND RIVER AVE & WATER ST,42.688316,-84.278893,,,,,,0
4032,4032,WBD Sycamore past Park St,W SYCAMORE ST & E SYCAMORE ST,42.581142,-84.443949,,,,,,0
4045,4045,NBD High past Whyte St,N HIGH ST & LAKE LANSING RD,42.75393,-84.538677,,,,,,0
4051,4051,SBD Waverly before Blanche Ave,S WAVERLY RD & W KALAMAZOO ST,42.729684,-84.603025,,,,,,0
4053,4053,NBD N East past Lake Lansing,N EAST ST & RANDALL ST,42.755954,-84.54273,,,,,,0
4068,4068,EBD Auditorium before Farm Ln,AUDITORIUM RD & AUDITORIUM BLVD,42.729237,-84.478717,,,,,,0
4069,4069,NBD Harrison before Shaw Ln,S HARRISON RD & LILAC AVE,42.725044,-84.493599,,,,,,0
4070,4070,SBD Harrison past Grand River,365 N HARRISON RD & HUNTINGTON RD,42.737366,-84.49358,,,,,,0
4072,4072,EBD Kalamazoo past Harrison,E KALAMAZOO ST & UNIVERSITY VILLAGE ENTRANCE,42.729284,-84.492094,,,,,,0
4077,4077,SBD Red Cedar before Wilson,RED CEDAR RD & ELM ST,42.724194,-84.482533,,,,,,0
4079,4079,WBD Wilson past Chestnut Rd,WILSON RD & WILSON RD,42.722033,-84.488616,,,,,,0
4091,4091,SBD Hagadorn before Burcham Dr,N HAGADORN RD & BURCHAM DR,42.742062,-84.462306,,,,,,0
4099,4099,EBD Mt Hope past Comanche Dr,E MOUNT HOPE RD & COMANCHE DR,42.711772,-84.44516,,,,,,0
4110,4110,WBD Mt Hope before Hagadorn Rd,E MOUNT HOPE RD & JANICE LEE DR,42.71186,-84.460031,,,,,,0
4133,4133,SBD Carriage Lane,CARRIAGE LANE APTS & CSX TRANSPORTATION,42.694561,-84.407506,,,,,,0
4137,4137,EBD Jolly past Okemos,2205 JOLLY RD & SERVICE DR,42.682879,-84.430542,,,,,,0
4138,4138,NBD Carriage Lane,CARRIAGE LANE APTS & ALGOMA DR,42.694426,-84.407347,,,,,,0
4181,4181,EBD W Circle @ Library,W CIRCLE DR,42.730868,-84.481601,,,,,,0
4204,4204,EBD Coleman @ Block 36,COLEMAN RD & E LENAWEE ST,42.772916,-84.490725,,,,,,0
4215,4215,Abbot Place Apt.,ABBOT RD & SWART ST,42.762888,-84.483723,,,,,,0
4216,4216,Landing @ Chandler Crossing,MELROSE PLACE,42.771101,-84.482628,,,,,,0
4219,4219,EBD Wilson past Bogue,WILSON RD & FARM LN,42.723127,-84.470805,,,,,,0
4285,4285,EBD Gr River past Marsh,1937 W GRAND RIVER AVE & MERIDIAN MALL LOT,42.720329,-84.419399,,,,,,0
4339,4339,EBD Saginaw before Dibble Blvd,E SAGINAW HWY & W THOMAS L PKWY,42.741066,-84.605766,,,,,,0
4342,4342,SBD Pine past Saginaw St,N PINE ST & W SAGINAW ST,42.740622,-84.560015,,,,,,0
4345,4345,EBD Jolly after S Pennsylvania,E JOLLY RD & S PENNSYLVANIA AVE,42.682954,-84.537398,,,,,,0
4359,4359,WBD Shiawassee at Haag Ct,E SHIAWASSEE ST & HAAG CT,42.73721,-84.53977,,,,,,0
4360,4360,EBD Shiawassee before Pennsylvania,E SHIAWASSEE ST & N PENNSYLVANIA AVE,42.7371,-84.53842,,,,,,0
4361,4361,SBD Pennsylvania past Michigan,S PENNSYLVANIA AVE & EUREKA ST,42.73318,-84.53799,,,,,,0
4362,4362,SBD Pennsylvania before Prospect St,S PENNSYLVANIA AVE & EUREKA ST,42.73132,-84.53802,,,,,,0
4363,4363,SBD Pennsylvania past Kalamazoo,S PENNSYLVANIA AVE & HICKORY ST,42.72958,-84.53806,,,,,,0
4364,4364,SBD Pennsylvania before Heald Pl,S PENNSYLVANIA AVE & BEMENT ST,42.72768,-84.53808,,,,,,0
4365,4365,SBD Pennsylvania past Hazel St,S PENNSYLVANIA AVE & E HAZEL ST,42.72268,-84.5382,,,,,,0
4366,4366,SBD Pennsylvania after Fayette St,S PENNSYLVANIA AVE & LINDBERGH DR,42.71772,-84.53817,,,,,,0
4367,4367,SBD Pennsylvania past Baker St,S PENNSYLVANIA AVE & MOTOR AVE,42.71626,-84.53819,,,,,,0
4368,4368,SBD Pennsylvania past Motor Ave,S Pennsylvania Ave & Motor,42.71501,-84.53819,,,,,,0
4369,4369,SBD Pennsylvania past Kenwood Ave,S PENNSYLVANIA AVE & RILEY ST,42.70991,-84.5382,,,,,,0
4370,4370,SBD Pennsylvania past Pacific Ave,S PENNSYLVANIA AVE & PACIFIC AVE,42.70804,-84.53825,,,,,,0
4371,4371,SBD Pennsylvania past Tisdale,S PENNSYLVANIA AVE & LINCOLN AVE,42.70628,-84.53822,,,,,,0
4373,4373,SBD Pennsylvania past Dexter D,S PENNSYLVANIA AVE & S DEXTER DR,42.69773,-84.53816,,,,,,0
4374,4374,SBD Pennsylvania past Irvington Ave,S PENNSYLVANIA AVE & IRVINGTON AVE,42.69495,-84.53816,,,,,,0
4375,4375,SBD Pennsylvania before Maplehill,S PENNSYLVANIA AVE & MAPLEHILL AVE,42.69286,-84.53815,,,,,,0
4376,4376,SBD Pennsylvania past Cavanaugh,S PENNSYLVANIA AVE & SAMANTHA ST,42.68989,-84.53817,,,,,,0
4377,4377,SBD Pennsylvania past Samantha,S PENNSYLVANIA AVE & SAMANTHA ST,42.68799,-84.53817,,,,,,0
4378,4378,SBD Pennsylvania past Kendon Dr,S PENNSYLVANIA AVE & KENDON DR,42.68587,-84.53822,,,,,,0
4379,4379,SBD Pennsylvania past Jolly Rd,S PENNSYLVANIA AVE & E JOLLY RD,42.68256,-84.53826,,,,,,0
4380,4380,SBD Pennsylvania past Armstrong,S PENNSYLVANIA AVE & LOUISA ST,42.67889,-84.53823,,,,,,0
4381,4381,SBD Pennsylvania before Louisa St,S PENNSYLVANIA AVE & DENNIS ST,42.67712,-84.53825,,,,,,0
4382,4382,SBD Pennsylvania past Keystone,S PENNSYLVANIA AVE & KEYSTONE AVE,42.6743,-84.53826,,,,,,0
4383,4383,SBD Pennsylvania pastAndrew Jackson,S PENNSYLVANIA AVE & E MILLER RD,42.67085,-84.53827,,,,,,0
4388,4388,EBD Edgewood before Amwood,EDGEWOOD BLVD & AMWOOD DR,42.665071,-84.542811,,,,,,0
4389,4389,NBD Pennsylvania before Dennis St,S PENNSYLVANIA AVE & LOUISA ST,42.67773,-84.53808,,,,,,0
4390,4390,NBD Pennsylvania at Vernon Ave,S PENNSYLVANIA AVE & VERNON AVE,42.69671,-84.53797,,,,,,0
4395,4395,WBD Miller past Cedar St,E MILLER RD & KAYNORTH RD,42.669357,-84.545116,,,,,,0
4396,4396,WBD Miller past Curry Lane,E MILLER RD & CURRY LN,42.669376,-84.548602,,,,,,0
4418,4418,NBD Atlanta before Ronald St,ATLANTA PL & REO RD,42.687235,-84.594968,,,,,,0
4422,4422,NBD Waverly past Lochmoor Dr,S WAVERLY RD & S WAVERLY RD,42.691359,-84.602987,,,,,,0
4428,4428,SBD Seaway before Burneway Dr,SEAWAY DR & GLENBURNE BLVD,42.688371,-84.607735,,,,,,0
4429,4429,EBD Burneway past Seaway Dr,BURNEWAY DR & GLENBURNE BLVD,42.68659,-84.60566,,,,,,0
4430,4430,EBD Holmes @ Somerset,W HOLMES RD & S MARTIN LUTHER KING JR BLVD,42.697486,-84.571161,,,,,,0
4431,4431,WBD St Joseph past Washington,W SAINT JOSEPH ST & S CAPITOL AVE,42.726464,-84.552948,,,,,,0
4439,4439,NBD Walnut past Lenawee St,S WALNUT ST & W KALAMAZOO ST,42.728971,-84.556938,,,,,,0
4452,4452,NBD Cedar before Decamp Ave,CEDAR ST & DECAMP AVE,42.643307,-84.51844,,,,,,0
4453,4453,NBD Cedar past Delhi Commerce Dr,CEDAR ST & FAY ST,42.65201,-84.52962,,,,,,0
4454,4454,NBD Cedar before Just A Mere,S CEDAR ST & JUST A MERE AVE,42.6576,-84.53548,,,,,,0
4457,4457,NBD Cedar before Armstrong Rd,S CEDAR ST & ARMSTRONG RD,42.67906,-84.54796,,,,,,0
4458,4458,NBD Cedar past Jolly Rd,S CEDAR ST & W JOLLY RD,42.683992,-84.547894,,,,,,0
4459,4459,NBD Cedar past Jessop Ave,S CEDAR ST & FENTON ST,42.690725,-84.547905,,,,,,0
4460,4460,NBD Cedar past Park Blvd,S CEDAR ST & E WILLARD AVE,42.70462,-84.547927,,,,,,0
4469,4469,EBD Jolly Rd before Five Oaks Dr,,42.682916,-84.517954,,,,,,0
4471,4471,EBD Beau Jardin past Belle Chase,BEAU JARDIN DR & TRAPPERS COVE TRL,42.68443,-84.506548,,,,,,0
4472,4472,NBD Trappers Cove past Beau Jardin,TRAPPERS COVE TRL & BEAU JARDIN DR,42.686639,-84.505416,,,,,,0
4473,4473,WBD Trappers Cove before Dunckel 2,TRAPPERS COVE TRL & DUNCKEL RD,42.687521,-84.512436,,,,,,0
4474,4474,EBD Dunckel Rd before I-496/127,DUNCKEL RD & DUNCKEL RD,42.6898,-84.508824,,,,,,0
4477,4477,SBD Pennsylvania past Malcolm X,S PENNSYLVANIA AVE & CLIMAX ST,42.72479,-84.53818,,,,,,0
4478,4478,NBD Pennsylvania past Michigan,N PENNSYLVANIA AVE & S PENNSYLVANIA AVE,42.73432,-84.5378,,,,,,0
4479,4479,WBD Shiawassee past Larch St,E SHIAWASSEE ST & N LARCH ST,42.73727,-84.54542,,,,,,0
4491,4491,WBD Delta River before Waverly Rd,DELTA RIVER DR & CRANBROOK AVE,42.762846,-84.601873,,,,,,0
4494,4494,WBD North past Vermont Ave,E NORTH ST & VERMONT AVE,42.751799,-84.534906,,,,,,0
4496,4496,WBD North before High St,E NORTH ST & N HIGH ST,42.751809,-84.538519,,,,,,0
4498,4498,WBD Sheridan past N East,E SHERIDAN RD & N LARCH ST,42.769735,-84.543383,,,,,,0
4500,4500,WBD Holmes at Sommerset,W HOLMES RD & S MARTIN LUTHER KING JR BLVD,42.697594,-84.571481,,,,,,0
4501,4501,WBD Holmes @ 1809 W Holmes,W HOLMES RD & SIMKEN DR,42.697613,-84.576686,,,,,,0
4509,4509,SBD Cedar at Riverfront Apts,N CEDAR ST & ERIE ST,42.739195,-84.5466,,,,,,0
4510,4510,SBD High past Gier St,N HIGH ST & 8TH AVE,42.756337,-84.538515,,,,,,0
4511,4511,EBD North past High St,E NORTH ST & N HIGH ST,42.751702,-84.538433,,,,,,0
4512,4512,EBD North before Massachussetts,E NORTH ST & NEW YORK AVE,42.751683,-84.536282,,,,,,0
4523,4523,WBD Shaw before Red Cedar Rd,N SHAW LN & SCIENCE RD,42.72608,-84.480332,,,,,,0
4526,4526,NBD Physics before Dormitory Rd,PHYSICS RD,42.730539,-84.474244,,,,,,0
4527,4527,WBD E Circle past Farm Lane,E CIRCLE DR & BERKEY LOT ENTRANCE,42.732663,-84.477557,,,,,,0
4529,4529,WBD W. Circle past Abbott Rd,W CIRCLE DR & FARM LN,42.733592,-84.485884,,,,,,0
4531,4531,EBD W.Circle past Kalamazoo St,W CIRCLE DR & UNIVERSITY VILLAGE ENTRANCE,42.731792,-84.4844,,,,,,0
4533,4533,WBD Shaw past Wilson,E SHAW LN & WILSON RD,42.72563,-84.467669,,,,,,0
4536,4536,Fee at Conrad,WILSON RD & CONRAD HALL,42.72425,-84.46659,,,,,,0
4537,4537,WBD Shaw before Bogue,E SHAW LN & WILSON RD,42.725776,-84.470715,,,,,,0
4540,4540,NBD Farm past Wilson,FARM LN & E AGRICULTURE RD,42.72402,-84.477879,,,,,,0
4544,4544,EBD Wilson past Red Cedar Rd,WILSON RD & RED CEDAR RD,42.723137,-84.481417,,,,,,0
4546,4546,EBD Wilson before Farm Ln,WILSON RD & FARM LN,42.723126,-84.478813,,,,,,0
4547,4547,EBD Wilson Rd past Science,WILSON RD & SCIENCE RD,42.723121,-84.473495,,,,,,0
4552,4552,W Circle Dr before Hangar Dr,W CIRCLE DR & E CIRCLE DR,42.773996,-84.591451,,,,,,0
4557,4557,WBD  Miller past Coulson Ct,W MILLER RD & COULSON CT,42.66935,-84.552713,,,,,,0
4558,4558,WBD Miller past Ellendale Dr,W MILLER RD & ELLENDALE DR,42.669369,-84.556248,,,,,,0
4559,4559,WBD Miller past Hilliard Rd,W MILLER RD & HILLIARD RD,42.669352,-84.558776,,,,,,0
4560,4560,WBD Miller past Washington,W MILLER RD & S WASHINGTON RD,42.669362,-84.563685,,,,,,0
4561,4561,WBD Miller before Daft St,W MILLER RD & DAFT ST,42.669327,-84.566741,,,,,,0
4562,4562,WBD Miller past  Winterset Dr,W MILLER RD & YUNKER ST,42.669319,-84.570398,,,,,,0
4563,4563,NBD Haag before Miller,HAAG RD & SELFRIDGE BLVD,42.66838,-84.572645,,,,,,0
4564,4564,WBD Miller before Grovenberg Rd,W MILLER RD & GROVENBURG RD,42.669303,-84.582229,,,,,,0
4565,4565,WBD Miller before Picardy St,W MILLER RD & PHEASANT RD,42.669295,-84.586255,,,,,,0
4566,4566,EBD Miller past Wise Rd,W MILLER RD & PLEASANT GROVE RD,42.669161,-84.59152,,,,,,0
4570,4570,NBD MLK past Jolly Rd,S MARTIN LUTHER KING JR BLVD & TRESSA DR,42.683814,-84.567803,,,,,,0
4572,4572,SBD Waverly before Old Farm Ln,S WAVERLY RD & OLD FARM LN,42.674314,-84.60313,,,,,,0
4575,4575,EBD Miller past Pleasant Grove Rd,W MILLER RD & PLEASANT GROVE RD,42.669196,-84.586721,,,,,,0
4576,4576,EBD Miller past Grovenberg Rd,W MILLER RD & GROVENBURG RD,42.669196,-84.582352,,,,,,0
4577,4577,EBD Miller past Woodgate Dr,W MILLER RD & SELFRIDGE BLVD,42.669177,-84.578093,,,,,,0
4578,4578,SBD Balfour Dr. past Miller,BALFOUR DR & SELFRIDGE BLVD,42.667817,-84.576241,,,,,,0
4580,4580,EBD Miller before Southbrook,W MILLER RD & SOUTHBROOK AVE,42.669238,-84.565637,,,,,,0
4581,4581,EBD Miller past Somerset Rd,W MILLER RD & SOMMERSET RD,42.669262,-84.556002,,,,,,0
4582,4582,EBD Miller at Annapolis Dr,W MILLER RD & ANNAPOLIS DR,42.669243,-84.553585,,,,,,0
4583,4583,EBD Miller past Gardenia Ave,E MILLER RD & GARDENIA AVE,42.669269,-84.549645,,,,,,0
4584,4584,EBD Miller before Cedar St,E MILLER RD & KAYNORTH RD,42.669249,-84.545202,,,,,,0
4585,4585,WBD Jolly past Five Oaks Dr,E JOLLY RD & FIVE OAKS DR,42.682979,-84.517524,,,,,,0
4596,4596,EBD Kalamazoo past Marigold,E KALAMAZOO ST & MARIGOLD AVE,42.727949,-84.501898,,,,,,0
4603,4603,EBD Edgewood past American,EDGEWOOD BLVD & AMERICAN RD,42.663011,-84.548329,,,,,,0
4604,4604,EBD Haslett past Ferndale Ave,HASLETT RD & FERNDALE AVE,42.746898,-84.45753,,,,,,0
4605,4605,EBD Haslett past Park Lake Rd,HASLETT RD & E END DR,42.746913,-84.44657,,,,,,0
4606,4606,NBD Boise Isle past Haslett Rd,BOIS ILE DR & HASLETT RD,42.74747,-84.41971,,,,,,0
4607,4607,WBD Central Park past Marsh Rd,CENTRAL PARK DR & NEWMAN RD,42.727499,-84.414614,,,,,,0
4608,4608,SBD LacDuMont near #2074,LAC DU MONT DR,42.752515,-84.424797,,,,,,0
4609,4609,SBD LacDuMont past Lake Lansing,LAC DU MONT DR & LAKE LANSING RD,42.750618,-84.424777,,,,,,0
4610,4610,SBD LacDuMont before Bois Isle,LAC DU MONT DR & LAKE LANSING RD,42.749189,-84.420259,,,,,,0
4611,4611,SBD Bois Isle before Haslett Rd,BOIS ILE DR & HASLETT RD,42.747515,-84.419858,,,,,,0
4614,4614,NBD Dobie past Jolly Rd,3576 DOBIE RD & ALGOMA DR,42.685599,-84.41033,,,,,,0
4615,4615,NBD Dobie past Forest Hills,4496 DOBIE RD & FOREST HILLS DR,42.711628,-84.410297,,,,,,0
4616,4616,NBD Dobie past Minoka Trail,DOBIE RD & MINOKA TRL,42.715762,-84.410273,,,,,,0
4617,4617,EBD Gr River past Washington Hts,W GRAND RIVER AVE & WASHINGTON HEIGHTS AVE,42.719142,-84.414931,,,,,,0
4618,4618,SBD Dobie before Kinawa Dr,DOBIE RD & CSX TRANSPORTATION,42.697938,-84.410444,,,,,,0
4619,4619,NBD Ingham Cty Care Facility,INGHAM COUNTY EXTENDED CARE & ALGOMA DR,42.693229,-84.408897,,,,,,0
4620,4620,WBD Jolly past Alaiedon,2112 JOLLY RD & SERVICE DR,42.682991,-84.427215,,,,,,0
4621,4621,WBD Mt Hope past Hawthorne Lane,E MOUNT HOPE RD & FAIRLANE DR,42.711861,-84.453289,,,,,,0
4627,4627,SBD Chestnut before Wilson Rd,CHESTNUT RD & WILSON RD,42.724189,-84.48768,,,,,,0
4630,4630,NBD Farm past Trowbridge,FARM LN & SCIENCE RD,42.72168,-84.47796,,,,,,0
4632,4632,NBD Jefferson before Cherry,S JEFFERSON ST & E SOUTH ST,42.57597,-84.443066,,,,,,0
4634,4634,NBD McPherson past Washtenaw,MCPHERSON AVE & W KALAMAZOO ST,42.732322,-84.574908,,,,,,0
4636,4636,NBD Clippert St past E Michigan,N CLIPPERT ST & S CLIPPERT ST,42.734638,-84.508264,,,,,,0
4638,4638,NBD Larch past Shiawassee,N LARCH ST & E SHIAWASSEE ST,42.737584,-84.544538,,,,,,0
4639,4639,WBD Lake Lansing past High St,LAKE LANSING RD & LAKE LANSING RD,42.755542,-84.540494,,,,,,0
4642,4642,EBD Shiawassee before Howe St,W SHIAWASSEE ST & WESTMORELAND AVE,42.737323,-84.571159,,,,,,0
4643,4643,EBD Shiawassee past Bartlett St,W SHIAWASSEE ST & BARTLETT ST,42.737331,-84.568346,,,,,,0
4644,4644,EBD Shiawassee before Sycamore St,W SHIAWASSEE ST & N SYCAMORE ST,42.737303,-84.562548,,,,,,0
4645,4645,SBD Bogue past Grand River,BOGUE ST & COLLINGWOOD DR,42.731271,-84.472154,,,,,,0
4646,4646,NBD - Fairchild Aud.,AUDITORIUM DR & FARM LN,42.728431,-84.477343,,,,,,0
4647,4647,EBD Kalamazoo past Homer,E KALAMAZOO ST & S CLIPPERT ST,42.729923,-84.508344,,,,,,0
4650,4650,WBD Kalamazoo past Clippert,E KALAMAZOO ST & S HOMER ST,42.730021,-84.508737,,,,,,0
4678,4678,SBD Hunsacker @ Village,Hunsaker St,42.77418,-84.48607,,,,,,0
4679,4679,SBD Cedar @ Kern,N CEDAR ST & KERNS RD,42.590867,-84.4606,,,,,,0
4681,4681,WBD Grand River & Kalmink,GRAND RIVER AVE W,42.667069,-84.181277,,,,,,0
4682,4682,SBD Central Park before Grand River,CENTRAL PARK DR & NEWMAN RD,42.719385,-84.409269,,,,,,0
4683,4683,SBD Central Park at Newman,CENTRAL PARK DR & NEWMAN RD,42.72242,-84.410292,,,,,,0
4688,4688,NBD Red Cedar & Trowbridge,RAMP 5,42.721321,-84.482034,,,,,,0
4692,4692,NBD Hagadorn past Grand River,N HAGADORN RD & E GRAND RIVER AVE,42.729955,-84.462047,,,,,,0
4694,4694,EBD Drive South of NCG,EASTWOOD TOWNE CENTER & LAKE LANSING RD,42.764513,-84.515489,,,,,,0
4695,4695,SBD Chester before Grand River,CHESTER RD & WOODRUFF AVE,42.743463,-84.511349,,,,,,0
4696,4696,EBD Saginaw past Pennsylvania,E SAGINAW ST & N CEDAR ST,42.740847,-84.537139,,,,,,0
4697,4697,NBD Harrison past Kalamazoo,S HARRISON RD & BRODY RD N,42.730977,-84.49386,,,,,,0
4699,4699,WBD Grand River past Harrison,W GRAND RIVER AVE & N HARRISON RD,42.738243,-84.494402,,,,,,0
4701,4701,NBD Balfour before Miller,BALFOUR DR & YUNKER ST,42.668273,-84.576179,,,,,,0
4702,4702,SBD Haag past Miller,HAAG RD & YUNKER ST,42.668604,-84.572804,,,,,,0
4704,4704,EBD Georgetown past Balfour,GEORGETOWN BLVD & SELFRIDGE BLVD,42.664283,-84.575689,,,,,,0
4705,4705,NBD Haag past Georgetown,HAAG RD & SELFRIDGE BLVD,42.665124,-84.574339,,,,,,0
4710,4710,WBD Old Lansing before Waverly,OLD LANSING RD & CADILLAC AVE,42.714203,-84.602582,,,,,,0
4711,4711,WBD Holmes past Lawdor,W HOLMES RD & LAWDOR RD,42.697686,-84.595606,,,,,,0
4712,4712,WBD Holmes at Berwick,W HOLMES RD & BERWICK DR,42.697695,-84.598651,,,,,,0
4713,4713,WBD Holmes before Waverly,W HOLMES RD & AVERILL DR,42.697712,-84.602568,,,,,,0
4720,4720,WBD Old Lansing  @ YMCA,OLD LANSING RD & PACKARD RD,42.717317,-84.598382,,,,,,0
4733,4733,SBD Cedar past American,S CEDAR ST & CEDAR/PENNSYLVANIA CUTOFF,42.661704,-84.5389,,,,,,0
4734,4734,SBD Cedar before Delhi Commerce,CEDAR ST & S CEDAR ST,42.65134,-84.52915,,,,,,0
4737,4737,SBD Haag Road Before Georgetown,HAAG RD & YUNKER ST,42.665428,-84.574585,,,,,,0
4738,4738,WBD Georgetown past Haag,GEORGETOWN BLVD & YUNKER ST,42.664721,-84.576033,,,,,,0
4739,4739,SBD Balfour Dr. before Georgetown,BALFOUR DR & SELFRIDGE BLVD,42.665894,-84.576744,,,,,,0
4742,4742,WBD Miller past Woodgate,W MILLER RD & LONGMEADOW RD,42.669285,-84.578891,,,,,,0
4744,4744,EBD Miller past Winterset,W MILLER RD & DAFT ST,42.669221,-84.569404,,,,,,0
4745,4745,EBD Miller past Washington,W MILLER RD & COOPER RD,42.669264,-84.562176,,,,,,0
4746,4746,EBD Miller past Hilliard,W MILLER RD & HILLIARD RD,42.669245,-84.558641,,,,,,0
4749,4749,SBD Harrison Rd @ Forest Acres CC,S HARRISON RD & E MOUNT HOPE RD,42.70858,-84.493955,,,,,,0
4751,4751,SBD Harrison past N Crescent,S HARRISON RD & CRESCENT RD,42.715935,-84.493956,,,,,,0
4752,4752,Middlevale before Elementary School,MIDDLEVALE RD & S HARRISON RD,42.714822,-84.500933,,,,,,0
4753,4753,Middlevale before N Crescent,MIDDLEVALE RD & S HARRISON RD,42.717209,-84.498719,,,,,,0
4755,4755,NBD Harrison past Trowbridge,S HARRISON RD & CRESCENT RD,42.720481,-84.49363,,,,,,0
4759,4759,WBD Kalamazoo past Marigold,E KALAMAZOO ST & MARIGOLD AVE,42.728111,-84.502389,,,,,,0
4760,4760,NBD Harrison before Kalamazoo,S HARRISON RD & LILAC AVE,42.727227,-84.493608,,,,,,0
4761,4761,SBD Bogue past Waters Edge,BOGUE ST & WATERS EDGE DR,42.728676,-84.472171,,,,,,0
4762,4762,NBD Waverly past Old Lansing,S WAVERLY RD & LANSING RD,42.714409,-84.60295,,,,,,0
4763,4763,EBD William past Buffalo,WILLIAM ST & BUFFALO ST,42.724403,-84.579307,,,,,,0
4764,4764,WBD William past Buffalo,WILLIAM ST & OLDS AVE,42.724502,-84.580167,,,,,,0
4767,4767,EBD Frontage Road past Barbara,S SERVICE DR & UNNAMED ST,42.74069,-84.62722,,,,,,0
4769,4769,WBD Holt Road past Adelphe,W HOLT RD & PHILLIPS AVE,42.64027,-84.52675,,,,,,0
4770,4770,WBD Holt Road past Dean,W HOLT RD & JEFFERSON ST,42.6403,-84.53041,,,,,,0
4771,4771,WBD Holt Rd. past Hamilton,W HOLT RD & PAGEANT WAY,42.640362,-84.53325,,,,,,0
4772,4772,WBD Holt Rd. past Wyndam Hills,W HOLT RD & N EIFERT RD,42.64036,-84.53684,,,,,,0
4773,4773,EBD Holt Rd past Aurelius,W HOLT RD & AURELIUS RD,42.640142,-84.522823,,,,,,0
4774,4774,EBD Holt Rd. past Elm,W HOLT RD & ELM ST,42.640176,-84.519842,,,,,,0
4780,4780,EBD Grand River at Andrea,N GRAND RIVER AVE & ANDREA DR,42.767178,-84.592398,,,,,,0
4784,4784,NBD N East past Bates,N EAST ST & BATES ST,42.762415,-84.542725,,,,,,0
4795,4795,SBD Regent past Malcolm X,REGENT ST & E MOUNT HOPE AVE,42.723132,-84.52389,,,,,,0
4799,4799,EBD Saginaw past Clippert,E SAGINAW ST & FRANDOR AVE,42.740785,-84.507888,,,,,,0
4800,4800,WBD Grand River before Clippert,E GRAND RIVER AVE & N CLIPPERT ST,42.741473,-84.506425,,,,,,0
4802,4802,WBD ETC Drive before Mitchells,SAMS WAY & TOWNE CENTRE BLVD,42.762821,-84.51484,,,,,,0
4803,4803,SBD Howard past Grand River,N HOWARD ST & MELODY LN,42.741629,-84.510725,,,,,,0
4804,4804,SBD Howard past Saginaw,N HOWARD ST & FERNWOOD AVE,42.740009,-84.511132,,,,,,0
4805,4805,WBD Kalamazoo before Harrison,E KALAMAZOO ST & SCIENCE RD,42.729294,-84.492585,,,,,,0
4807,4807,EBD Wilson before Chestnut,WILSON RD & CHESTNUT RD,42.721944,-84.488592,,,,,,0
4808,4808,NBD Chestnut before Shaw,Chestnut Rd & Unknown,42.7251,-84.487683,,,,,,0
4810,4810,Commuter Lot 89-1,COMMUTER LOT 89,42.714091,-84.482525,,,,,,0
4811,4811,Commuter Lot 89-2,COMMUTER LOT 89,42.713331,-84.482477,,,,,,0
4812,4812,Commuter Lot 89-3,COMMUTER LOT 89,42.712971,-84.480464,,,,,,0
4813,4813,WBD N Shaw at Lot 79 (Stadium),W SHAW LN & N SHAW LN,42.72577,-84.484508,,,,,,0
4814,4814,WBD N Shaw past Chestnut,W SHAW LN & CHESTNUT RD,42.725781,-84.487051,,,,,,0
4815,4815,SBD Birch before Wilson,BIRCH RD & CHESTNUT RD,42.72412,-84.491217,,,,,,0
4819,4819,NBD MAC past Albert,MAC AVE & MARIOTT SERVICE DRIVE,42.735887,-84.480647,,,,,,0
4820,4820,NBD MAC past Elizabeth,MAC AVE & BEECH ST,42.73842,-84.480606,,,,,,0
4821,4821,NBD MAC before Burcham,634 MAC AVE & BURCHAM DR,42.740209,-84.48059,,,,,,0
4822,4822,EBD Burcham before Old Hickory,BURCHAM DR & OLD HICKORY LN,42.740618,-84.477125,,,,,,0
4823,4823,NBD Alton past Burcham,718 ALTON RD & BURCHAM DR,42.741359,-84.471837,,,,,,0
4824,4824,NBD Alton across St. Thomas,ALTON RD & BURCHAM DR,42.74345,-84.471875,,,,,,0
4825,4825,NBD Alton before Saginaw,ALTON RD & WHITEHILLS DR,42.746286,-84.471882,,,,,,0
4826,4826,NBD Hagadorn past Crestwood,N HAGADORN RD & APPLEGATE LN,42.751526,-84.462219,,,,,,0
4827,4827,NBD Hagadorn past Applegate,5956 N HAGADORN RD & APPLEGATE LN,42.753804,-84.462268,,,,,,0
4828,4828,WBD Lake Lansing past Abbott,W LAKE LANSING RD & ARBOR GLEN DR,42.759401,-84.48452,,,,,,0
4829,4829,WBD Lake Lansing past Arbor Glenn,W LAKE LANSING RD & N HARRISON RD,42.75938,-84.487966,,,,,,0
4830,4830,EBD Lake Lansing past Harrison,W LAKE LANSING RD & BURNT TREE LN,42.759431,-84.492184,,,,,,0
4831,4831,EBD Lake Lansing before Arbor Glen,W LAKE LANSING RD & BURNT TREE LN,42.759312,-84.488571,,,,,,0
4832,4832,EBD Birch Row past Rutherford,BIRCH ROW DR & PORTER AVE,42.758234,-84.473765,,,,,,0
4833,4833,EBD Birch Row past Pollard,BIRCH ROW DR & GIBSON AVE,42.758249,-84.470545,,,,,,0
4834,4834,EBD Birch Row past Hardy,BIRCH ROW DR & HARDY AVE,42.758237,-84.46724,,,,,,0
4835,4835,EBD Birch Row past Hagadorn,BIRCH ROW DR & N HAGADORN RD,42.758653,-84.462729,,,,,,0
4836,4836,EBD Birch Row past Briarwick,6180 BIRCH ROW DR & INNKEEPERS CT,42.760028,-84.460883,,,,,,0
4837,4837,SBD Birch Row after Cobbler's,N HAGADORN RD & INNKEEPERS CT,42.761012,-84.463559,,,,,,0
4838,4838,SBD Hagadorn at Farrington,N HAGADORN RD & FARRINGTON CT,42.759048,-84.463859,,,,,,0
4839,4839,SBD Hagadorn before Horizon,N HAGADORN RD & HORIZON DR,42.756729,-84.462438,,,,,,0
4840,4840,SBD Hagadorn before Applegate,1801 N HAGADORN RD & CRESTWOOD DR,42.75289,-84.462457,,,,,,0
4841,4841,SBD Hagadorn past Crestwood,N HAGADORN RD & FORTUNE DR,42.751002,-84.462461,,,,,,0
4842,4842,SBD Alton Street before Whitehills,ALTON RD & WHITEHILLS DR,42.74541,-84.472338,,,,,,0
4844,4844,WBD Burcham past Old Hickory,BURCHAM DR & OLD HICKORY LN,42.74076,-84.478989,,,,,,0
4846,4846,SBD Hag across from Glenwood Apt,HAGADORN RD & BRIARCLIFF ST,42.715808,-84.462394,,,,,,0
4848,4848,SBD Abbot  past Lake Lansing,2205 ABBOT RD & E LAKE LANSING RD,42.758673,-84.483804,,,,,,0
4851,4851,NBD Aurelius past Jolly,AURELIUS RD & E JOLLY RD,42.683796,-84.523391,,,,,,0
4852,4852,EBD Forest past Alliance,FOREST RD & ALLIANCE DR,42.704514,-84.50088,,,,,,0
4853,4853,WBD Forest past Collins,FOREST RD & ALLIANCE DR,42.704646,-84.500697,,,,,,0
4854,4854,EBD Provincial House past Aurelius,PROVINCIAL HOUSE DR & CALLIHAN CT,42.696411,-84.520922,,,,,,0
4855,4855,WBD Kalamazoo past Regent,E KALAMAZOO ST & REGENT ST,42.730049,-84.524165,,,,,,0
4856,4856,EBD Kalamazoo past Leslie,E KALAMAZOO ST & LESLIE ST,42.729941,-84.524509,,,,,,0
4858,4858,EBD Jolly before Alaidon,JOLLY RD & SERVICE DR,42.682894,-84.428087,,,,,,0
4861,4861,SBD Times Square past Marsh,TIMES SQUARE DR & 5TH AVE,42.729506,-84.409782,,,,,,0
4862,4862,EBD Central Park past Marsh,CENTRAL PARK DR & MARSH RD,42.72714,-84.413866,,,,,,0
4863,4863,NBD Times Square past Central Park,TIMES SQUARE DR & MARSH RD,42.728601,-84.409035,,,,,,0
4864,4864,WBD Old Lansing past Lansing Rd,OLD LANSING RD & OLDS AVE,42.719859,-84.594894,,,,,,0
4865,4865,NBD Cedar at Kern,N CEDAR ST & KERNS RD,42.591198,-84.460415,,,,,,0
4871,4871,WBD ETC Drive by Bravo,SAMS WAY & EASTWOOD TOWNE CENTER,42.762813,-84.516573,,,,,,0
4872,4872,EBD @ Sams Club,EASTWOOD TOWNE CENTER & LAKE LANSING RD,42.764596,-84.519434,,,,,,0
4873,4873,WBD @ Wal Mart,EASTWOOD TOWNE CENTER & EASTWOOD TOWNE CENTER,42.764748,-84.52011,,,,,,0
4874,4874,WBD Lake Lansing past Meijer Ent.,W LAKE LANSING RD & MEIJER LAKE LANSING LOT,42.760835,-84.501853,,,,,,0
4876,4876,SBD MLK before Kalamazoo,S MARTIN LUTHER KING JR BLVD & KINGSLEY CT,42.730414,-84.567317,,,,,,0
4890,4890,SBD High St past North,1559 N HIGH ST & NEW YORK AVE,42.751335,-84.538802,,,,,,0
4891,4891,SBD High St before Grand River,1221 N HIGH ST & DRURY LN,42.747791,-84.538768,,,,,,0
5378,5378,NBD Hagadorn past Mt Hope,HAGADORN RD & JANICE LEE DR,42.712622,-84.461958,,,,,,0
5379,5379,NBD Okemos at Kewanee,OKEMOS RD & KEWANEE WAY,42.709394,-84.432284,,,,,,0
5381,5381,EBD Mt Hope before Seminole,E MOUNT HOPE RD & INDIAN HILLS DR,42.71182,-84.432867,,,,,,0
5382,5382,NBD Dobie before Kinawa,DOBIE RD & KINAWA DR,42.696972,-84.410287,,,,,,0
5384,5384,EBD Jolly past Fairhills Dr,JOLLY RD & FAIRHILLS DR,42.682838,-84.421212,,,,,,0
5385,5385,WBD Gr River past Washington Hts,W GRAND RIVER AVE & WASHINGTON HEIGHTS AVE,42.719133,-84.414526,,,,,,0
5386,5386,NBD Larch Street at Erie,N LARCH ST & ERIE ST,42.739857,-84.544561,,,,,,0
5443,5443,SBD Cedar past Kalamazoo,S CEDAR ST & E KALAMAZOO ST,42.72831,-84.54547,,,,,,0
5445,5445,WBD Haslett past Westminster,HASLETT RD & OKEMOS RD,42.747024,-84.434332,,,,,,0
5446,5446,WBD Haslett past Park Lake,HASLETT RD & PARK LAKE RD,42.747049,-84.448597,,,,,,0
5447,5447,EBD Lake Lansing past Bois Isle,LAKE LANSING RD & LAC DU MONT DR,42.754915,-84.419409,,,,,,0
5450,5450,EBD Holmes past Express Ct.,W HOLMES RD & EXPRESS CT,42.697496,-84.573936,,,,,,0
5463,5463,SBD Jefferson before Cherry,S JEFFERSON ST & E CHERRY ST,42.576256,-84.443224,,,,,,0
5466,5466,SBD Jefferson before Maple,S JEFFERSON ST & E MAPLE ST,42.580542,-84.443203,,,,,,0
5467,5467,SBD Jefferson before Oak,S JEFFERSON ST & W ELM ST,42.577885,-84.443221,,,,,,0
5468,5468,SBD Cedar past Curtis,N CEDAR ST & CURTIS ST,42.588196,-84.456155,,,,,,0
5469,5469,EBD Columbia past Cedar,W COLUMBIA ST & MECHANIC ST,42.582162,-84.45211,,,,,,0
5470,5470,NBD Jefferson before Oak,S JEFFERSON ST & W ELM ST,42.57792,-84.443074,,,,,,0
5471,5471,NBD Jefferson past Maple,S JEFFERSON ST & E MAPLE ST,42.580631,-84.443055,,,,,,0
5472,5472,SBD M-52 past Highview Rd,STOCKBRIDGE RD & HIGHVIEW DR,42.662845,-84.19836,,,,,,0
5473,5473,NBD M-52 before Highview Rd.,STOCKBRIDGE RD,42.662675,-84.198214,,,,,,0
5489,5489,WBD Grand River at Webberville,GRAND RIVER AVE W & Webberville Rd,42.667241,-84.187633,,,,,,0
5491,5491,WBD Grand River past Skirting Av,E GRAND RIVER AVE & HIGHVIEW DR,42.685597,-84.265022,,,,,,0
5499,5499,NBD Central Park past Grand River,CENTRAL PARK DR & DOBIE RD,42.718356,-84.409492,,,,,,0
5500,5500,NBD Central Park at Newman,CENTRAL PARK DR & NEWMAN RD,42.72275,-84.410144,,,,,,0
5512,5512,EBD Grand River past Harrison,W GRAND RIVER AVE & ARDSON RD,42.737777,-84.49315,,,,,,0
5514,5514,EBD Grand RIver past Dobie,W GRAND RIVER AVE & CENTRAL PARK DR,42.717505,-84.408868,,,,,,0
5540,5540,SBD Ingham County Care Facility,INGHAM COUNTY EXTENDED CARE & CSX TRANSPORTATION,42.692738,-84.409218,,,,,,0
5542,5542,WBD Central Park past Times Square,1801 CENTRAL PARK DR & NEWMAN RD,42.727281,-84.412355,,,,,,0
5543,5543,EBD FIA Entrance off Cedar,UNNAMED ST & S CEDAR ST,42.681025,-84.547673,,,,,,0
5546,5546,EBD Jolly before Dunckel,,42.682905,-84.514406,,,,,,0
5548,5548,SBD PineTree past Jolly,PINE TREE RD & PATIENT CARE DR,42.682173,-84.503752,,,,,,0
5551,5551,NBD Stoneleigh past Wabash,STONELEIGH DR & FIRESIDE DR,42.699307,-84.514902,,,,,,0
5553,5553,EBD Coleman before Hunsaker,COLEMAN RD & COOLIDGE RD,42.77302,-84.487185,,,,,,0
5578,5578,WBD Kalamazoo past Magnolia,E KALAMAZOO ST & S MAGNOLIA AVE,42.729982,-84.521717,,,,,,0
5579,5579,SBD Cherry past Kalamazoo,CHERRY ST & E LENAWEE ST,42.729081,-84.549167,,,,,,0
5581,5581,EBD Jolly Past Belle Chase,,42.682919,-84.508133,,,,,,0
5583,5583,SBD Waverly past Bridgeport,S WAVERLY RD,42.671147,-84.603081,,,,,,0
5584,5584,EBD Miller past Waverly,W MILLER RD & S WAVERLY RD,42.669214,-84.602259,,,,,,0
5585,5585,EBD Miller past Coachlight,W MILLER RD & COACHLIGHT COMMON,42.669151,-84.59783,,,,,,0
5586,5586,WBD Miller past Coachlight,W MILLER RD & COACHLIGHT COMMON,42.669322,-84.598491,,,,,,0
5587,5587,WBD Miller before Waverly,W MILLER RD & S WAVERLY RD,42.669322,-84.602062,,,,,,0
5588,5588,NBD Waverly past Bridgeport,S WAVERLY RD & BRIDGEPORT DR,42.671469,-84.602971,,,,,,0
5590,5590,NBD High St before North,N HIGH ST & DRURY LN,42.751129,-84.538654,,,,,,0
5593,5593,WBD Gr River at Paddock Dr,W GRAND RIVER AVE & PADDOCK DR,42.715917,-84.399674,,,,,,0
5595,5595,EBD Grand River Before Corwin,W GRAND RIVER AVE & W GRAND RIVER AVE,42.688088,-84.303582,,,,,,0
5596,5596,EBD Grand River At McCormick,W GRAND RIVER AVE & MCCORMICK ST,42.68774,-84.292387,,,,,,0
5597,5597,EBD Grand River After Jackson,W GRAND RIVER AVE & E GRAND RIVER AVE,42.688716,-84.285349,,,,,,0
5598,5598,WBD Grand River After Water ST,E GRAND RIVER AVE & WATER ST,42.688469,-84.279187,,,,,,0
5599,5599,EBD Haslett before Hagadorn,HASLETT RD & E SAGINAW ST,42.746861,-84.464364,,,,,,0
5600,5600,SBD MLK past Hillcrest St,S MARTIN LUTHER KING JR BLVD & HILLCREST ST,42.692752,-84.567603,,,,,,0
5601,5601,SBD Harrison Road past Mt Hope,S HARRISON RD & E MOUNT HOPE RD,42.71122,-84.493951,,,,,,0
5602,5602,NBD Harrison Road past Mt Hope,S HARRISON RD & CRESCENT RD,42.712526,-84.493617,,,,,,0
5608,5608,NBD MLK past Washtenaw,S MARTIN LUTHER KING JR BLVD & Washtenaw,42.73159,-84.56667,,,,,,0
5609,5609,EBD Gr River  before Dobie Road,W GRAND RIVER AVE & COUNTRY WAY DR E,42.718234,-84.411593,,,,,,0
5636,5636,WBD Kalamazoo before Charles,E KALAMAZOO ST & CHARLES ST,42.730051,-84.513392,,,,,,0
5637,5637,WBD Jolly before Okemos,JOLLY RD & SERVICE DR,42.682979,-84.431327,,,,,,0
5638,5638,WBD Jolly before Waverly Road,W JOLLY RD & WEXFORD RD,42.683199,-84.601069,,,,,,0
5639,5639,EBD Grand River before Sky Way,E Grand River Rd & Skyway Dr,42.6837,-84.25607,,,,,,0
5640,5640,WBD Grand River past Sky Way,E Grand River Rd & Skyway Dr,42.68364,-84.25537,,,,,,0
5641,5641,SBD Washington at Bank St,S WASHINGTON AVE & E BARNES AVE,42.713298,-84.552509,,,,,,0
5642,5642,Hill Vocational Center,,42.673303,-84.591777,,,,,,0
5645,5645,SBD Farm past S Shaw,FARM LN,42.724879,-84.477988,,,,,,0
5646,5646,SBD Cedar past Just-a-Mere,S CEDAR ST & BROOKDALE ST,42.65675,-84.53485,,,,,,0
5647,5647,WBD Jolly before Cedar,E JOLLY RD & W JOLLY RD,42.683091,-84.54599,,,,,,0
5649,5649,SBD Pennsylvania before Oakland,N PENNSYLVANIA AVE & CADY CT,42.743988,-84.537874,,,,,,0
5669,5669,NBD Cedar before Willoughby,CEDAR ST & FAY ST,42.65352,-84.53121,,,,,,0
5670,5670,WBD Grand River past Dobie,1729 W GRAND RIVER AVE & COUNTRY WAY DR E,42.718215,-84.411139,,,,,,0
5672,5672,EBD Gr River past Paddock Farms,W GRAND RIVER AVE & PADDOCK DR,42.7158,-84.399552,,,,,,0
5673,5673,NBD Tranter past Rensen,TRANTER ST & CATA HEADQUARTERS,42.684992,-84.534536,,,,,,0
5675,5675,WBD Michigan before Washington,E MICHIGAN AVE & WASHINGTON STREET,42.733721,-84.551285,,,,,,0
5676,5676,NBD Washington past Allegan,S WASHINGTON SQ & E ALLEGAN ST,42.733005,-84.552194,,,,,,0
5678,5678,WBD Edgewood past Cedar,EDGEWOOD BLVD & CEDAR CONN/CEDAR RAMP,42.665669,-84.542444,,,,,,0
5679,5679,WBD Edgewood past Amwood,EDGEWOOD BLVD & PARIS AVE,42.665008,-84.544138,,,,,,0
5680,5680,WBD Edgewood past American Road,EDGEWOOD BLVD & CEDAR CONN/CEDAR RAMP,42.663184,-84.548802,,,,,,0
5683,5683,WBD Kalamazoo past Pennsylvania,E KALAMAZOO ST & S PENNSYLVANIA AVE,42.729957,-84.538488,,,,,,0
5684,5684,WBD Edgewood at Southbrook Apts,EDGEWOOD BLVD & CEDAR CONN/CEDAR RAMP,42.663998,-84.54663,,,,,,0
5685,5685,NBD Birch at Wonders Halls,BIRCH RD & FARM LN,42.724085,-84.49107,,,,,,0
5686,5686,EBD Shaw past Birch,W SHAW LN & BIRCH RD,42.725641,-84.490846,,,,,,0
5687,5687,NBD Chestnut past Shaw,CHESTNUT RD & W SHAW LN,42.726605,-84.487774,,,,,,0
5689,5689,WBD Edgewood past Richard,EDGEWOOD BLVD & RICHARD RD,42.660736,-84.557713,,,,,,0
5690,5690,WBD Edgewood past Washington,E EDGEWOOD/W EDGEWOOD TURN & EDGEWOOD BLVD,42.663136,-84.565615,,,,,,0
5691,5691,WBD Edgewood @ Edgewood Villas,EDGEWOOD BLVD & CEDAR CONN/CEDAR RAMP,42.66327,-84.567725,,,,,,0
5692,5692,EBD Edgewood past Washington,EDGEWOOD BLVD & W EDGEWOOD/E EDGEWOOD TURN,42.66232,-84.56292,,,,,,0
5693,5693,EBD Burcham before Butterfield,BURCHAM DR,42.740614,-84.47328,,,,,,0
5694,5694,NBD Okemos before Fox Hollow,OKEMOS RD & FIELDSTONE DR,42.689047,-84.432356,,,,,,0
5696,5696,EBD Lake Lansing past New York,LAKE LANSING RD & NEW YORK AVE,42.756202,-84.537286,,,,,,0
5697,5697,EBD Lake Lansing past Commonwealth,LAKE LANSING RD & MASSACHUSETTS AVE,42.757553,-84.535135,,,,,,0
5698,5698,EBD Lake Lansing past Chamberlain,LAKE LANSING RD & WOOD ST,42.760619,-84.528115,,,,,,0
5699,5699,EBD Lk Lansing before Wood,LAKE LANSING RD & WOOD ST,42.76065,-84.524805,,,,,,0
5700,5700,NBD Wood past Lake Lansing,WOOD ST & LAKE LANSING RD,42.761099,-84.52299,,,,,,0
5703,5703,WBD Lake Lansing past Wood,LAKE LANSING RD & WOOD ST,42.760766,-84.524918,,,,,,0
5704,5704,WBD Lake Lansing before Chamberlain,LAKE LANSING RD & WOOD ST,42.760748,-84.528425,,,,,,0
5705,5705,WBD Lake Lansing before Commonwealt,LAKE LANSING RD & COMMONWEALTH AVE,42.757892,-84.534815,,,,,,0
5706,5706,WBD Lake Lansing past New York,LAKE LANSING RD & NEW YORK AVE,42.756104,-84.537643,,,,,,0
5712,5712,WBD Edgewood past Celebration Dr.,EDGEWOOD BLVD & CEDAR CONN/CEDAR RAMP,42.661897,-84.552141,,,,,,0
5713,5713,NBD Collins past Dunckel,Collins Rd & Dunckel Rd,42.69001,-84.49867,,,,,,0
5714,5714,SBD Farm before Mt Hope,FARM LN & COMMUTER LOT 89,42.712047,-84.478329,,,,,,0
5716,5716,WBD Holmes past Express Dr.,W HOLMES RD & SIMKEN DR,42.697612,-84.574636,,,,,,0
5718,5718,WBD Kalamazoo at Dem Hall Dr,E KALAMAZOO ST & FARM LN,42.730061,-84.48939,,,,,,0
5719,5719,WBD Victor before Bedford,2900 VICTOR AVE & BEDFORD ST,42.705327,-84.589209,,,,,,0
5720,5720,NBD LacDuMont past Bois Isle,2016 LAC DU MONT DR,42.749918,-84.423783,,,,,,0
5723,5723,EBD Edgewood before Celebration Dr,EDGEWOOD BLVD & W EDGEWOOD/E EDGEWOOD TURN,42.661937,-84.551213,,,,,,0
5724,5724,WBD Patient Care before Pine Tree,PATIENT CARE DR & PINE TREE RD,42.677439,-84.502752,,,,,,0
5729,5729,WBD Gr River before MLK,N GRAND RIVER AVE & W LAPEER ST,42.75972,-84.566629,,,,,,0
5730,5730,EBD Central Park before Marsh,CENTRAL PARK DR & NEW YORK AVE,42.727833,-84.416223,,,,,,0
5731,5731,WBD North past Massachusetts,E NORTH ST & NEW YORK AVE,42.75179,-84.536417,,,,,,0
5736,5736,EBD Lake Lansing before Chamberlain,LAKE LANSING RD,42.759922,-84.531298,,,,,,0
5737,5737,WBD Lake Lansing past Chamberlain,LAKE LANSING RD,42.76006,-84.531327,,,,,,0
5740,5740,EBD Saginaw before Cedar,E SAGINAW ST & N CEDAR ST,42.740851,-84.548332,,,,,,0
5741,5741,EBD Main past Bridge St,W MAIN ST & BRIDGE ST,42.724162,-84.585387,,,,,,0
5742,5742,NBD Cap. City Blvd @ Peckham,CAPITOL CITY BLVD & N GRAND RIVER AVE,42.768931,-84.588883,,,,,,0
5743,5743,NBD Abbot past Abbot Place,ABBOT RD & ABBOT PLACE APT,42.763317,-84.483575,,,,,,0
5744,5744,NBD Abbot at EL Aquatic Center,ABBOT RD & S CHANDLER RD,42.767576,-84.483519,,,,,,0
5745,5745,EBD Trappers Cove past Dunckel 1,TRAPPERS COVE TRL,42.687414,-84.512535,,,,,,0
5746,5746,EBD Trappers Cove past Dunckel 2,TRAPPERS COVE TRL,42.687429,-84.50895,,,,,,0
5747,5747,EBD Trappers Cove past Dunckel 3,TRAPPERS COVE TRL & BEAU JARDIN DR,42.686702,-84.505808,,,,,,0
5748,5748,EBD Trappers Cove past Dunckel 4,TRAPPERS COVE TRL & BEAU JARDIN DR,42.685055,-84.504878,,,,,,0
5749,5749,WBD BeauJardin past Trappers Cove,BEAU JARDIN DR & TRAPPERS COVE TRL,42.684528,-84.505762,,,,,,0
5750,5750,SBD Belle Chase past Beau Jardin,BELLE CHASE BLVD & BEAU JARDIN DR,42.684127,-84.508562,,,,,,0
5751,5751,EBD Shiawassee past Chestnut,W SHIAWASSEE ST & N CHESTNUT ST,42.737239,-84.558002,,,,,,0
5752,5752,EBD Shiawassee past Seymour,W SHIAWASSEE ST & N CAPITOL AVE,42.737221,-84.554968,,,,,,0
5753,5753,EBD Saginaw past Pine,W SAGINAW ST & N CHESTNUT ST,42.740891,-84.559622,,,,,,0
5754,5754,EBD Saginaw past Walnut,W SAGINAW ST & N WALNUT ST,42.74089,-84.556563,,,,,,0
5757,5757,SBD Deerfield past Herrick,S DEERFIELD AVE & W HOLMES RD,42.699681,-84.591997,,,,,,0
5759,5759,EBD Mt Hope @ Grand Haven Apts,W MOUNT HOPE AVE,42.712065,-84.593519,,,,,,0
5760,5760,NBD Farm past Auditorium,FARM LN & AUDITORIUM RD,42.729603,-84.477746,,,,,,0
5761,5761,NBD Farm before Dormitory,E CIRCLE DR & AUDITORIUM RD,42.730659,-84.476799,,,,,,0
5762,5762,EBD Burcham past Abbot,BURCHAM DR & ABBOT RD,42.74065,-84.483256,,,,,,0
5763,5763,SBD Abbot past Arbor Glen,ABBOT RD & SWART ST,42.760319,-84.483789,,,,,,0
5764,5764,Abbot Place - Circle Drive,ABBOT PLACE APT & ABBOT RD,42.763122,-84.485357,,,,,,0
5766,5766,WBD Albert past Grove,ALBERT AVE & GROVE ST,42.735978,-84.482477,,,,,,0
5772,5772,SBD Washington past Michigan,S WASHINGTON SQ & E ALLEGAN ST,42.733354,-84.552329,,,,,,0
5773,5773,SBD Washington past Allegan,S WASHINGTON SQ & W ALLEGAN ST,42.732021,-84.55233,,,,,,0
5782,5782,WBD Burcham past Butterfield,BURCHAM DR,42.740722,-84.47328,,,,,,0
5786,5786,EBD Perkins before Leslie,PERKINS ST & SHEPARD ST,42.721047,-84.525255,,,,,,0
5787,5787,WBD Perkins past Leslie,PERKINS ST & SHEPARD ST,42.721155,-84.525243,,,,,,0
5795,5795,WBD English Oak past Pinetree,ENGLISH OAK DR & PINE TREE RD,42.673038,-84.504354,,,,,,0
5796,5796,WBD English Oak before Spanish Oak,ENGLISH OAK DR & PINE TREE RD,42.672969,-84.507643,,,,,,0
5797,5797,NBD Dunckel before Legacy (Trinity),DUNCKEL RD & PINE TREE RD,42.677993,-84.513614,,,,,,0
5798,5798,LCCWest,CORNERSTONE DR & SANDERS RD,42.717734,-84.630129,,,,,,0
5801,5801,EBD Grand River between Northwind D,E GRAND RIVER AVE & DAWN AVE,42.727182,-84.454314,,,,,,0
5802,5802,SBD Farm Lane past Green Way Drive,FARM LN & S SERVICE RD,42.716665,-84.478186,,,,,,0
5803,5803,NBD Farm Lane before Green Way Dr.,FARM LN & CSX TRANSPORTATION,42.716993,-84.478039,,,,,,0
5804,5804,SBD Eifert past Haddon Hall,N EIFERT RD,42.62802,-84.543,,,,,,0
5805,5805,EBD Kalamazoo at U Vill entrance,E KALAMAZOO ST & UNIVERSITY VILLAGE ENTRANCE,42.728015,-84.499048,,,,,,0
5806,5806,WBD Kalamazoo past U Vill entrance,E KALAMAZOO ST & UNIVERSITY VILLAGE ENTRANCE,42.728153,-84.499343,,,,,,0
5807,5807,SBD Hagadorn past Cambria,N HAGADORN RD & E SAGINAW ST,42.748899,-84.462404,,,,,,0
5808,5808,NBD Hagadorn past Cambria,N HAGADORN RD & CAMBRIA DR,42.74957,-84.462235,,,,,,0
5810,5810,SBD Washington past Elm,S WASHINGTON AVE & GROSS CT,42.721677,-84.552447,,,,,,0
5813,5813,NBD Dobie at Sashabaw,DOBIE RD & SASHABAW DR,42.691039,-84.410315,,,,,,0
5815,5815,EBD Patient Care past PineTree,PATIENT CARE DR & PINE TREE RD,42.679748,-84.502798,,,,,,0
5816,5816,EBD Holmes before MLK,W HOLMES RD & S MARTIN LUTHER KING JR BLVD,42.697495,-84.568227,,,,,,0
5817,5817,WBD Grand River before Burkley Rd,E GRAND RIVER AVE & BURKLEY RD,42.702396,-84.342482,,,,,,0
5818,5818,EBD Grand River past Burkly,E GRAND RIVER AVE & BURKLEY RD,42.702406,-84.342801,,,,,,0
5823,5823,EBD Vine past Homer,VINE ST & N HOMER ST,42.735972,-84.509233,,,,,,0
5824,5824,EBD Mt Hope before Fairlane,E MOUNT HOPE RD & HAWTHORNE LN,42.711746,-84.453732,,,,,,0
5825,5825,WBD Lake Lansing past Bayonne,LAKE LANSING RD,42.754798,-84.419016,,,,,,0
5885,5885,NBD Clippert past Vine,N CLIPPERT ST & SELLERS AVE,42.736634,-84.508262,,,,,,0
5886,5886,SBD Clippert past Sellers,N CLIPPERT ST & SELLERS AVE,42.736571,-84.508409,,,,,,0
5894,5894,SBD MLK past Barnes,S MARTIN LUTHER KING JR BLVD & W BARNES AVE,42.714693,-84.567876,,,,,,0
5895,5895,NBD MLK past Barnes,S MARTIN LUTHER KING JR BLVD & W BARNES AVE,42.715202,-84.567336,,,,,,0
5907,5907,NBD MLK past Gordon,,42.709011,-84.567412,,,,,,0
5910,5910,Meijer Lake Lansing Boarding center (west side),MEIJER LAKE LANSING LOT,42.762043,-84.501999,,,,,,0
5911,5911,NBD Hagadorn past Hannah Blvd,S HAGADORN RD & CANADIAN NATIONAL RAILWAY,42.719754,-84.46203,,,,,,0
5913,5913,SBD Hagadorn past Service,HAGADORN RD & S HAGADORN RD,42.718698,-84.462437,,,,,,0
5917,5917,Rt 22 WBD at Meijer,OKEMOS MEIJER LOT,42.71997,-84.424644,,,,,,0
5918,5918,WBD Hunsaker past Chandler,HUNSAKER ST,42.775926,-84.484231,,,,,,0
5919,5919,EBD Mt Hope before Pleasant Grove,W MOUNT HOPE AVE & PLEASANT GROVE RD,42.712037,-84.583719,,,,,,0
5920,5920,EBD Mt Hope past Pleasant Grove,W MOUNT HOPE AVE & BOSTON BLVD,42.712028,-84.580109,,,,,,0
5926,5926,NBD Harrison past Service,S HARRISON RD & S SERVICE RD,42.718807,-84.493608,,,,,,0
5927,5927,Meijer S Penn BC East Side,MEIJER PENNSYLVANIA LOT,42.667584,-84.541804,,,,,,0
5928,5928,Meijer S Penn BC West Side,MEIJER PENNSYLVANIA LOT,42.668228,-84.542086,,,,,,0
5929,5929,WBD St Joseph past Waverly,E ST JOE HWY & S DIBBLE ST,42.726677,-84.605924,,,,,,0
5930,5930,WBD St. Joe Before Snow,E ST JOE HWY & KIDS CT,42.726702,-84.620062,,,,,,0
5931,5931,EBD St Joseph past Snow,E ST JOE HWY & KIDS CT,42.726594,-84.620172,,,,,,0
5941,5941,WBD Coleman past Chandler,COLEMAN RD & COLLINS RD,42.771094,-84.484275,,,,,,0
5942,5942,WBD Coleman past Hunsaker,COLEMAN RD & COLLINS RD,42.773074,-84.487001,,,,,,0
5943,5943,WBD Coleman at Block 36,COLEMAN RD,42.773175,-84.491228,,,,,,0
5944,5944,WBD Coleman at Beaumont Park,COLEMAN RD & BEAUMONT PARK DR,42.773244,-84.498616,,,,,,0
5945,5945,SBD Coolidge past Earl,COOLIDGE RD & TURF LN,42.771163,-84.503215,,,,,,0
5946,5946,SBD Coolidge past Abbey,COOLIDGE RD & MEIJER LAKE LANSING LOT,42.764406,-84.503335,,,,,,0
5947,5947,NBD Coolidge past Abbey,COOLIDGE RD & ABBEY RD,42.764997,-84.503175,,,,,,0
5948,5948,NBD Coolidge past Turf,COOLIDGE RD & EARL AVE,42.770133,-84.503094,,,,,,0
5949,5949,EBD Coleman at Beaumont,COLEMAN RD & WHARTON ST,42.773127,-84.498014,,,,,,0
5950,5950,NBD Tranter past Jolly,TRANTER ST,42.683185,-84.534549,,,,,,0
5951,5951,Lot 92 - MSU Clinical Center,S SERVICE RD,42.719395,-84.469903,,,,,,0
5952,5952,Ramp 1 Bay 1,RAMP 1,42.725601,-84.475468,,,,,,0
5953,5953,Ramp 1 Bay 2,RAMP 1,42.725601,-84.475468,,,,,,0
5954,5954,Ramp 1 Bay 3,RAMP 1,42.725601,-84.475468,,,,,,0
5955,5955,Ramp 1 Bay 4,RAMP 1,42.725601,-84.475468,,,,,,0
5956,5956,Ramp 1 Bay 5,RAMP 1,42.725601,-84.475468,,,,,,0
5957,5957,Ramp 1 Bay 6,RAMP 1,42.725601,-84.475468,,,,,,0
5958,5958,Ramp 1 Bay 7,RAMP 1,42.725601,-84.475468,,,,,,0
5959,5959,Ramp 1 Bay 8,RAMP 1,42.725601,-84.475468,,,,,,0
5982,5982,EBD Coleman at Block 36,COLEMAN RD,42.77306,-84.491269,,,,,,0
5983,5983,EBD St Joseph past Chesley,E ST JOE HWY & CHESLEY ST,42.726578,-84.612778,,,,,,0
5984,5984,WBD St Joseph before Chesley,E ST JOE HWY & CHESLEY ST,42.726685,-84.612901,,,,,,0
5985,5985,WBD Coleman at the Club,COLEMAN RD & CHESLEY ST,42.772384,-84.485908,,,,,,0
5986,5986,EBD Coleman at the Club,COLEMAN RD & CHESLEY ST,42.772124,-84.485896,,,,,,0
5987,5987,NBD Abbot before Lake Lansing Rd,ABBOT RD & LAKE LANSING RD,42.758861,-84.483693,,,,,,0
5988,5988,EBD Coleman past Hamlet,COLEMAN RD & HAMLET RD,42.773156,-84.499968,,,,,,0
5989,5989,SBD Collins before Dunkel,COLLINS RD & DUNKEL,42.690044,-84.498807,,,,,,0
5990,5990,SBD Snow Rd & Aspen,SNOW RD & W I 496,42.722299,-84.622922,,,,,,0
5991,5991,WBD Cornerstone past Snow,CORNERSTONE DR & W I 496,42.716473,-84.623914,,,,,,0
5992,5992,SBD Snow & Aspen,SNOW RD & ASPEN DR,42.722451,-84.622787,,,,,,0
5994,5994,WBD Lake Lansing at Harkson,E LAKE LANSING RD & W LAKE LANSING RD,42.759125,-84.481471,,,,,,0
5996,5996,Boston Blvd past Mount Hope,BOSTON BLVD,42.71124,-84.576105,,,,,,0
5997,5997,EBD Grand River after Cedar,E GRAND RIVER AVE & N CEDAR ST,42.747329,-84.545943,,,,,,0
5998,5998,WBD Grand River past Cedar,E GRAND RIVER AVE & CENTER ST,42.747491,-84.547467,,,,,,0
5999,5999,EBD Grand River after Case,E GRAND RIVER AVE & CASE ST,42.747506,-84.541594,,,,,,0
6002,6002,WBD Coleman past Hamlet,COLEMAN RD & HAMLET CIR,42.773263,-84.500484,,,,,,0
6004,6004,WBD Grand River past Larch,E GRAND RIVER AVE & N LARCH ST,42.74749,-84.545034,,,,,,0
6005,6005,EBD Grand River before Case,E GRAND RIVER AVE & CASE ST,42.747345,-84.541987,,,,,,0
6006,6006,WBD Grand River past Turner,E GRAND RIVER AVE & CASE ST,42.74751,-84.550563,,,,,,0
6008,6008,SBD Chandler past Coleman,S CHANDLER RD & ABBOT RD,42.769778,-84.483675,,,,,,0
6033,6033,SBD Cedar at Edison Ave,,42.707646,-84.54809,,,,,,0
6034,6034,SBD University Villiage East,GARDEN CITY RD & COMMUTER LOT 89,42.728501,-84.497045,,,,,,0
6035,6035,NBD University Village East,GARDEN CITY RD & E KALAMAZOO ST,42.72859,-84.497094,,,,,,0
6036,6036,SBD Coolidge at Watertower Place,,42.765972,-84.503345,,,,,,0
6037,6037,NBD Times Square before Marsh,TIMES SQUARE DR,42.729819,-84.410125,,,,,,0
6042,6042,Multimodal Gateway,,42.718702,-84.49588,,,,,,0
6043,6043,SBD Morgan before Michigan,MORGAN LN & FRANDOR CENTER,42.734663,-84.504911,,,,,,0
6044,6044,WBD Crescent past Harrison 0,CRESCENT RD & S HARRISON RD,42.713529,-84.49531,,,,,,0
6045,6045,WBD Michigan before Morgan,E MICHIGAN AVE & MORGAN LN,42.733714,-84.50431,,,,,,0
6048,6048,WBD Miller past Aurelius,E MILLER RD & SCOTMAR DR,42.669266,-84.524265,,,,,,0
6049,6049,WBD Miller at Norburn,E MILLER RD & MARSCOT DR,42.669297,-84.530917,,,,,,0
6050,6050,EBD Miller before Marscot,,42.669189,-84.530426,,,,,,0
6051,6051,EBD Miller before Scotmar,,42.669179,-84.528327,,,,,,0
6052,6052,WBD Grand River past Summit,,42.667042,-84.175804,,,,,,0
6056,6056,NBD Washington past Michigan,,42.734177,-84.552169,,,,,,0
6059,6059,EBD Service Road at Clinical Center,S SERVICE RD & MSU MEDICAL CLINIC,42.719152,-84.468504,,,,,,0
6062,6062,EBD Cesar Chavez past Turner,,42.747375,-84.549249,,,,,,0
6066,6066,SBD Cedar past Shiawassee,N CEDAR ST & E SHIAWASSEE ST,42.736627,-84.546676,,,,,,0
6068,6068,EBD Michigan before Cedar,E MICHIGAN AVE & MUSEUM EXIT RAMP,42.733558,-84.54787,,,,,,0
6069,6069,NBD Larch past Michigan,,42.734246,-84.544565,,,,,,0
6070,6070,NBD Larch before Shiawassee,,42.736376,-84.544526,,,,,,0
